$GPGSV,4,4,13,193,,,*40
$GLGSV,3,1,09,81,62,129,40,68,38,255,31,88,38,049,18,82,25,186,37*61
$GLGSV,3,2,09,67,24,192,27,78,21,019,,69,15,305,22,77,10,068,*63
$GLGSV,3,3,09,79,10,329,*5B
$GNRMC,094638.000,A,0730.690328,N,08022.007361,E,0.00,191.54,280219,,,D*74
$GNVTG,191.54,T,,M,0.00,N,0.00,K,D*2E
$GNGGA,094639.000,0730.690328,N,08022.007361,E,2,16,0.65,152.706,M,-95.954,M,,*53
$GPGSA,A,3,01,11,30,09,07,03,28,23,18,17,,,1.37,0.65,1.21*0D
$GLGSA,A,3,88,67,81,82,68,69,,,,,,,1.37,0.65,1.21*19
$GPGSV,4,1,13,41,80,160,37,09,73,213,40,11,52,094,46,23,45,163,34*72
$GPGSV,4,2,13,07,43,011,31,17,34,215,33,01,32,123,42,28,31,298,28*7F
$GPGSV,4,3,13,18,27,091,26,08,25,033,,30,25,337,25,03,07,158,36*7A
$GPGSV,4,4,13,193,,,*40
$GLGSV,3,1,09,81,62,129,40,68,38,255,32,88,38,049,18,82,25,186,37*62
$GLGSV,3,2,09,67,24,192,27,78,21,019,,69,15,305,22,77,10,068,*63
$GLGSV,3,3,09,79,10,329,*5B
$GNRMC,094639.000,A,0730.690328,N,08022.007361,E,0.00,191.54,280219,,,D*75
$GNVTG,191.54,T,,M,0.00,N,0.00,K,D*2E
$GNGGA,094640.000,0730.690328,N,08022.007361,E,2,16,0.65,152.706,M,-95.954,M,,*5D
$GPGSA,A,3,01,11,30,09,07,03,28,23,18,17,,,1.37,0.65,1.21*0D
$GLGSA,A,3,88,67,81,82,68,69,,,,,,,1.37,0.65,1.21*19
$GPGSV,4,1,13,41,80,160,37,09,73,213,40,11,52,094,46,23,45,163,34*72
$GPGSV,4,2,13,07,43,011,32,17,34,215,33,01,32,123,42,28,31,298,28*7C
$GPGSV,4,3,13,18,27,091,26,08,25,033,,30,25,337,25,03,07,158,36*7A
$GPGSV,4,4,13,193,,,*40
$GLGSV,3,1,09,81,62,129,40,68,38,255,31,88,38,049,19,82,25,186,37*60
$GLGSV,3,2,09,67,24,192,27,78,21,019,,69,15,305,23,77,10,068,*62
$GLGSV,3,3,09,79,10,329,*5B
$GNRMC,094640.000,A,0730.690328,N,08022.007361,E,0.00,191.54,280219,,,D*7B
$GNVTG,191.54,T,,M,0.00,N,0.00,K,D*2E
$GNGGA,094641.000,0730.690328,N,08022.007361,E,2,16,0.65,152.706,M,-95.954,M,,*5C
$GPGSA,A,3,01,11,30,09,07,03,28,23,18,17,,,1.37,0.65,1.21*0D
$GLGSA,A,3,88,67,81,82,68,69,,,,,,,1.37,0.65,1.21*19
$GPGSV,4,1,13,41,80,160,37,09,73,213,41,11,52,094,46,23,45,163,34*73
$GPGSV,4,2,13,07,43,011,32,17,34,215,34,01,32,123,42,28,31,298,27*74
$GPGSV,4,3,13,18,27,091,26,08,25,033,,30,25,337,25,03,07,158,36*7A
$GPGSV,4,4,13,193,,,*40
$GLGSV,3,1,09,81,62,129,40,68,38,255,31,88,38,049,19,82,25,186,36*61
$GLGSV,3,2,09,67,24,192,27,78,21,019,,69,15,305,23,77,10,068,*62
$GLGSV,3,3,09,79,10,329,*5B
$GNRMC,094641.000,A,0730.690328,N,08022.007361,E,0.00,191.54,280219,,,D*7A
$GNVTG,191.54,T,,M,0.00,N,0.00,K,D*2E
$GNGGA,094642.000,0730.690328,N,08022.007361,E,2,16,0.65,152.706,M,-95.954,M,,*5F
$GPGSA,A,3,01,11,30,09,07,03,28,23,18,17,,,1.37,0.65,1.21*0D
$GLGSA,A,3,88,67,81,82,68,69,,,,,,,1.37,0.65,1.21*19
$GPGSV,4,1,13,41,80,160,37,09,73,213,41,11,52,094,46,23,45,163,34*73
$GPGSV,4,2,13,07,43,011,32,17,34,215,34,01,32,123,42,28,31,298,26*75
$GPGSV,4,3,13,18,27,091,26,08,25,033,,30,25,337,25,03,07,158,36*7A
$GPGSV,4,4,13,193,,,*40
$GLGSV,3,1,09,81,62,129,40,68,38,255,32,88,38,049,20,82,25,186,36*68
$GLGSV,3,2,09,67,24,192,28,78,21,019,,69,15,305,23,77,10,068,*6D
$GLGSV,3,3,09,79,10,329,*5B
$GNRMC,094642.000,A,0730.690328,N,08022.007361,E,0.00,191.54,280219,,,D*79
$GNVTG,191.54,T,,M,0.00,N,0.00,K,D*2E
$GNGGA,094643.000,0730.690328,N,08022.007361,E,2,16,0.65,152.706,M,-95.954,M,,*5E
$GPGSA,A,3,01,11,30,09,07,03,28,23,18,17,,,1.37,0.65,1.21*0D
$GLGSA,A,3,88,67,81,82,68,69,,,,,,,1.37,0.65,1.21*19
$GPGSV,4,1,14,41,80,160,37,09,73,213,40,11,52,094,46,23,45,163,34*75
$GPGSV,4,2,14,07,43,011,32,17,34,215,34,01,32,123,42,28,31,298,26*72
$GPGSV,4,3,14,18,27,091,26,08,25,033,,30,25,337,26,19,09,213,*72
$GPGSV,4,4,14,03,07,158,36,193,,,*7A
$GLGSV,3,1,09,81,62,129,40,68,38,255,32,88,38,049,20,82,25,186,36*68
$GLGSV,3,2,09,67,24,192,28,78,21,019,,69,15,305,23,77,10,068,*6D
$GLGSV,3,3,09,79,10,329,*5B
$GNRMC,094643.000,A,0730.690328,N,08022.007361,E,0.00,191.54,280219,,,D*78
$GNVTG,191.54,T,,M,0.00,N,0.00,K,D*2E
$GNGGA,094644.000,0730.690328,N,08022.007361,E,2,16,0.65,152.706,M,-95.954,M,,*59
$GPGSA,A,3,01,11,30,09,07,03,28,23,18,17,,,1.37,0.65,1.21*0D
$GLGSA,A,3,88,67,81,82,68,69,,,,,,,1.37,0.65,1.21*19
$GPGSV,4,1,14,41,80,160,37,09,73,213,40,11,52,094,46,23,45,163,33*72
$GPGSV,4,2,14,07,43,011,32,17,34,215,34,01,32,123,42,28,31,298,26*72
$GPGSV,4,3,14,18,27,091,27,08,25,033,,30,25,337,26,19,09,213,*73
$GPGSV,4,4,14,03,07,158,36,193,,,*7A
$GLGSV,3,1,09,81,62,129,40,68,38,255,33,88,38,049,21,82,25,186,36*68
$GLGSV,3,2,09,67,24,192,28,78,21,019,,69,15,305,23,77,10,068,*6D
$GLGSV,3,3,09,79,10,329,*5B
$GNRMC,094644.000,A,0730.690328,N,08022.007361,E,0.00,191.54,280219,,,D*7F
$GNVTG,191.54,T,,M,0.00,N,0.00,K,D*2E
$GNGGA,094645.000,0730.690328,N,08022.007361,E,2,16,0.65,152.706,M,-95.954,M,,*58
$GPGSA,A,3,01,11,30,09,07,03,28,23,18,17,,,1.37,0.65,1.21*0D
$GLGSA,A,3,88,67,81,82,68,69,,,,,,,1.37,0.65,1.21*19
$GPGSV,4,1,14,41,80,160,37,09,73,213,39,11,52,094,46,23,45,163,33*7C
$GPGSV,4,2,14,07,43,011,31,17,34,215,34,01,32,123,42,28,31,298,26*71
$GPGSV,4,3,14,18,27,091,27,08,25,033,,30,25,337,26,19,09,213,*73
$GPGSV,4,4,14,03,07,158,36,193,,,*7A
$GLGSV,3,1,09,81,62,129,40,68,38,255,33,88,38,049,21,82,25,186,36*68
$GLGSV,3,2,09,67,24,192,28,78,21,019,,69,15,305,23,77,10,068,*6D
$GLGSV,3,3,09,79,10,329,*5B
$GNRMC,094645.000,A,0730.690328,N,08022.007361,E,0.00,191.54,280219,,,D*7E
$GNVTG,191.54,T,,M,0.00,N,0.00,K,D*2E
$GNGGA,094646.000,0730.690328,N,08022.007361,E,2,16,0.65,152.706,M,-95.954,M,,*5B
$GPGSA,A,3,01,11,30,09,07,03,28,23,18,17,,,1.37,0.65,1.21*0D
$GLGSA,A,3,88,67,81,82,68,69,,,,,,,1.37,0.65,1.21*19
$GPGSV,4,1,14,41,80,160,37,09,73,213,39,11,52,094,46,23,45,163,33*7C
$GPGSV,4,2,14,07,43,011,31,17,34,215,34,01,32,123,42,28,31,298,25*72
$GPGSV,4,3,14,18,27,091,28,08,25,033,,30,25,337,26,19,09,213,*7C
$GPGSV,4,4,14,03,07,158,36,193,,,*7A
$GLGSV,3,1,09,81,62,129,41,68,38,255,33,88,38,049,21,82,25,186,36*69
$GLGSV,3,2,09,67,24,192,28,78,21,019,,69,15,305,23,77,10,068,*6D
$GLGSV,3,3,09,79,10,329,*5B
$GNRMC,094646.000,A,0730.690328,N,08022.007361,E,0.00,191.54,280219,,,D*7D
$GNVTG,191.54,T,,M,0.00,N,0.00,K,D*2E
$GNGGA,094647.000,0730.690328,N,08022.007361,E,2,16,0.65,152.706,M,-95.954,M,,*5A
$GPGSA,A,3,01,11,30,09,07,03,28,23,18,17,,,1.37,0.65,1.21*0D
$GLGSA,A,3,88,67,81,82,68,69,,,,,,,1.37,0.65,1.21*19
$GPGSV,4,1,14,41,80,160,37,09,73,213,39,11,52,094,46,23,45,163,33*7C
$GPGSV,4,2,14,07,43,011,31,17,34,215,34,01,32,123,42,28,31,298,25*72
$GPGSV,4,3,14,18,27,091,28,08,25,033,,30,25,337,26,19,09,213,19*74
$GPGSV,4,4,14,03,07,158,36,193,,,*7A
$GLGSV,3,1,09,81,62,129,41,68,38,255,33,88,38,049,22,82,25,186,36*6A
$GLGSV,3,2,09,67,24,192,28,78,21,019,,69,15,305,23,77,10,068,*6D
$GLGSV,3,3,09,79,10,329,*5B
$GNRMC,094647.000,A,0730.690328,N,08022.007361,E,0.00,191.54,280219,,,D*7C
$GNVTG,191.54,T,,M,0.00,N,0.00,K,D*2E
$GNGGA,094648.000,0730.690328,N,08022.007361,E,2,16,0.65,152.706,M,-95.954,M,,*55
$GPGSA,A,3,01,11,30,09,07,03,28,23,18,17,,,1.37,0.65,1.21*0D
$GLGSA,A,3,88,67,81,82,68,69,,,,,,,1.37,0.65,1.21*19
$GPGSV,4,1,14,41,80,160,37,09,73,213,39,11,52,094,46,23,45,163,33*7C
$GPGSV,4,2,14,07,43,011,32,17,34,215,34,01,32,123,43,28,31,298,25*70
$GPGSV,4,3,14,18,27,091,28,08,25,033,,30,25,337,26,19,09,213,20*7E
$GPGSV,4,4,14,03,07,158,36,193,,,*7A
$GLGSV,3,1,09,81,62,129,41,68,38,255,33,88,38,049,22,82,25,186,36*6A
$GLGSV,3,2,09,67,24,192,28,78,21,019,,69,15,305,23,77,10,068,*6D
$GLGSV,3,3,09,79,10,329,*5B
$GNRMC,094648.000,A,0730.690328,N,08022.007361,E,0.00,191.54,280219,,,D*73
$GNVTG,191.54,T,,M,0.00,N,0.00,K,D*2E
$GNGGA,094649.000,0730.690328,N,08022.007361,E,2,16,0.65,152.706,M,-95.954,M,,*54
$GPGSA,A,3,01,11,30,09,07,03,28,23,18,17,,,1.37,0.65,1.21*0D
$GLGSA,A,3,88,67,81,82,68,69,,,,,,,1.37,0.65,1.21*19
$GPGSV,4,1,14,41,80,160,37,09,73,213,39,11,52,094,46,23,45,163,33*7C
$GPGSV,4,2,14,07,43,011,32,17,34,215,34,01,32,123,43,28,31,298,25*70
$GPGSV,4,3,14,18,27,091,28,08,25,033,,30,25,337,27,19,09,213,20*7F
$GPGSV,4,4,14,03,07,158,36,193,,,*7A
$GLGSV,3,1,09,81,62,129,41,68,38,255,33,88,38,049,22,82,25,186,36*6A
$GLGSV,3,2,09,67,24,192,28,78,21,019,,69,15,305,23,77,10,068,*6D
$GLGSV,3,3,09,79,10,329,*5B
$GNRMC,094649.000,A,0730.690328,N,08022.007361,E,0.00,191.54,280219,,,D*72
$GNVTG,191.54,T,,M,0.00,N,0.00,K,D*2E
$GNGGA,094650.000,0730.690328,N,08022.007361,E,2,16,0.65,152.706,M,-95.954,M,,*5C
$GPGSA,A,3,01,11,30,09,07,03,28,23,18,17,,,1.37,0.65,1.21*0D
$GLGSA,A,3,88,67,81,82,68,69,,,,,,,1.37,0.65,1.21*19
$GPGSV,4,1,14,41,80,160,37,09,73,213,41,11,52,094,46,23,45,163,32*72
$GPGSV,4,2,14,07,43,011,33,17,34,215,34,01,32,123,43,28,31,298,25*71
$GPGSV,4,3,14,18,27,091,28,08,25,033,,30,25,337,28,19,09,213,21*71
$GPGSV,4,4,14,03,07,158,36,193,,,*7A
$GLGSV,3,1,09,81,62,129,41,68,38,255,32,88,38,049,22,82,25,186,36*6B
$GLGSV,3,2,09,67,24,192,28,78,21,019,,69,15,305,23,77,10,068,*6D
$GLGSV,3,3,09,79,10,329,*5B
$GNRMC,094650.000,A,0730.690328,N,08022.007361,E,0.00,191.54,280219,,,D*7A
$GNVTG,191.54,T,,M,0.00,N,0.00,K,D*2E
$GNGGA,094651.000,0730.690328,N,08022.007361,E,2,16,0.65,152.706,M,-95.954,M,,*5D
$GPGSA,A,3,01,11,30,09,07,03,28,23,18,17,,,1.37,0.65,1.21*0D
$GLGSA,A,3,88,67,81,82,68,69,,,,,,,1.37,0.65,1.21*19
$GPGSV,4,1,14,41,80,160,37,09,73,213,41,11,52,094,46,23,45,163,32*72
$GPGSV,4,2,14,07,43,011,33,17,34,215,34,01,32,123,43,28,31,298,25*71
$GPGSV,4,3,14,18,27,091,28,08,25,033,,30,25,337,28,19,09,213,22*72
$GPGSV,4,4,14,03,07,158,36,193,,,*7A
$GLGSV,3,1,09,81,62,129,41,68,38,255,32,88,38,049,22,82,25,186,36*6B
$GLGSV,3,2,09,67,24,192,28,78,21,019,,69,15,305,23,77,10,068,*6D
$GLGSV,3,3,09,79,10,329,*5B
$GNRMC,094651.000,A,0730.690328,N,08022.007361,E,0.00,191.54,280219,,,D*7B
$GNVTG,191.54,T,,M,0.00,N,0.00,K,D*2E
$GNGGA,094652.000,0730.690328,N,08022.007361,E,2,16,0.65,152.706,M,-95.954,M,,*5E
$GPGSA,A,3,01,11,30,09,07,03,28,23,18,17,,,1.37,0.65,1.21*0D
$GLGSA,A,3,88,67,81,82,68,69,,,,,,,1.37,0.65,1.21*19
$GPGSV,4,1,14,41,80,160,37,09,73,213,41,11,52,094,46,23,45,163,32*72
$GPGSV,4,2,14,07,43,011,32,17,34,215,34,01,32,123,43,28,31,298,25*70
$GPGSV,4,3,14,18,27,091,28,08,25,033,,30,25,337,28,19,09,213,21*71
$GPGSV,4,4,14,03,07,158,36,193,,,*7A
$GLGSV,3,1,09,81,62,129,41,68,38,255,32,88,38,049,23,82,25,186,36*6A
$GLGSV,3,2,09,67,24,192,28,78,21,019,,69,15,305,24,77,10,068,*6A
$GLGSV,3,3,09,79,10,329,*5B
$GNRMC,094652.000,A,0730.690328,N,08022.007361,E,0.00,191.54,280219,,,D*78
$GNVTG,191.54,T,,M,0.00,N,0.00,K,D*2E
$GNGGA,094653.000,0730.690328,N,08022.007361,E,2,16,0.65,152.706,M,-95.954,M,,*5F
$GPGSA,A,3,01,11,30,09,07,03,28,23,18,17,,,1.37,0.65,1.21*0D
$GLGSA,A,3,88,67,81,82,68,69,,,,,,,1.37,0.65,1.21*19
$GPGSV,4,1,14,41,80,160,37,09,73,213,41,11,52,094,46,23,45,163,32*72
$GPGSV,4,2,14,07,43,011,32,17,34,215,34,01,32,123,43,28,31,298,25*70
$GPGSV,4,3,14,18,27,091,29,08,25,033,,30,25,337,28,19,09,213,21*70
$GPGSV,4,4,14,03,07,158,35,193,,,*79
$GLGSV,3,1,09,81,62,129,41,68,38,255,32,88,38,049,23,82,25,186,36*6A
$GLGSV,3,2,09,67,24,192,29,78,21,019,,69,15,305,24,77,10,068,*6B
$GLGSV,3,3,09,79,10,329,*5B
$GNRMC,094653.000,A,0730.690328,N,08022.007361,E,0.00,191.54,280219,,,D*79
$GNVTG,191.54,T,,M,0.00,N,0.00,K,D*2E
$GNGGA,094654.000,0730.690328,N,08022.007361,E,2,16,0.65,152.706,M,-95.954,M,,*58
$GPGSA,A,3,01,11,30,09,07,03,28,23,18,17,,,1.37,0.65,1.21*0D
$GLGSA,A,3,88,67,81,82,68,69,,,,,,,1.37,0.65,1.21*19
$GPGSV,4,1,14,41,80,160,37,09,73,213,42,11,52,094,46,23,45,163,33*70
$GPGSV,4,2,14,07,43,011,32,17,34,215,34,01,32,123,43,28,31,298,25*70
$GPGSV,4,3,14,18,27,091,30,08,25,033,,30,25,337,29,19,09,213,21*79
$GPGSV,4,4,14,03,07,158,35,193,,,*79
$GLGSV,3,1,09,81,62,129,41,68,38,255,33,88,38,049,23,82,25,186,36*6B
$GLGSV,3,2,09,67,24,192,30,78,21,019,,69,15,305,24,77,10,068,*63
$GLGSV,3,3,09,79,10,329,*5B
$GNRMC,094654.000,A,0730.690328,N,08022.007361,E,0.00,191.54,280219,,,D*7E
$GNVTG,191.54,T,,M,0.00,N,0.00,K,D*2E
$GNGGA,094655.000,0730.690328,N,08022.007361,E,2,16,0.65,152.706,M,-95.954,M,,*59
$GPGSA,A,3,01,11,30,09,07,03,28,23,18,17,,,1.37,0.65,1.21*0D
$GLGSA,A,3,88,67,81,82,68,69,,,,,,,1.37,0.65,1.21*19
$GPGSV,4,1,14,41,80,160,37,09,73,213,42,11,52,094,46,23,45,163,33*70
$GPGSV,4,2,14,07,43,011,32,17,34,215,34,01,32,123,43,28,31,298,25*70
$GPGSV,4,3,14,18,27,091,30,08,25,033,,30,25,337,29,19,09,213,22*7A
$GPGSV,4,4,14,03,07,158,35,193,,,*79
$GLGSV,3,1,09,81,62,129,41,68,38,255,33,88,38,049,23,82,25,186,36*6B
$GLGSV,3,2,09,67,24,192,30,78,21,019,,69,15,305,24,77,10,068,*63
$GLGSV,3,3,09,79,10,329,*5B
$GNRMC,094655.000,A,0730.690328,N,08022.007361,E,0.00,191.54,280219,,,D*7F
$GNVTG,191.54,T,,M,0.00,N,0.00,K,D*2E
$GNGGA,094656.000,0730.690328,N,08022.007361,E,2,16,0.65,152.706,M,-95.954,M,,*5A
$GPGSA,A,3,01,11,30,09,07,03,28,23,18,17,,,1.37,0.65,1.21*0D
$GLGSA,A,3,88,67,81,82,68,69,,,,,,,1.37,0.65,1.21*19
$GPGSV,4,1,14,41,80,160,37,09,73,213,42,11,52,094,46,23,45,163,33*70
$GPGSV,4,2,14,07,43,011,32,17,34,215,33,01,32,123,43,28,31,298,26*74
$GPGSV,4,3,14,18,27,091,30,08,25,033,,30,25,337,29,19,09,213,22*7A
$GPGSV,4,4,14,03,07,158,35,193,,,*79
$GLGSV,3,1,09,81,62,129,41,68,38,255,33,88,38,049,22,82,25,186,36*6A
$GLGSV,3,2,09,67,24,192,30,78,21,019,,69,15,305,24,77,10,068,*63
$GLGSV,3,3,09,79,10,329,*5B
$GNRMC,094656.000,A,0730.690328,N,08022.007361,E,0.00,191.54,280219,,,D*7C
$GNVTG,191.54,T,,M,0.00,N,0.00,K,D*2E
$GNGGA,094657.000,0730.690328,N,08022.007361,E,2,16,0.65,152.706,M,-95.954,M,,*5B
$GPGSA,A,3,01,11,30,09,07,03,28,23,18,17,,,1.37,0.65,1.21*0D
$GLGSA,A,3,88,67,81,82,68,69,,,,,,,1.37,0.65,1.21*19
$GPGSV,4,1,14,41,80,160,37,09,73,213,42,11,52,094,46,23,45,163,33*70
$GPGSV,4,2,14,07,43,011,32,17,34,215,32,01,32,123,43,28,31,298,26*75
$GPGSV,4,3,14,18,27,091,30,08,25,033,,30,25,337,29,19,09,213,22*7A
$GPGSV,4,4,14,03,07,158,35,193,,,*79
$GLGSV,3,1,09,81,62,129,41,68,38,255,33,88,38,049,21,82,25,186,36*69
$GLGSV,3,2,09,67,24,192,30,78,21,019,,69,15,305,25,77,10,068,*62
$GLGSV,3,3,09,79,10,329,*5B
$GNRMC,094657.000,A,0730.690328,N,08022.007361,E,0.00,191.54,280219,,,D*7D
$GNVTG,191.54,T,,M,0.00,N,0.00,K,D*2E
$GNGGA,094658.000,0730.690328,N,08022.007361,E,2,16,0.65,152.706,M,-95.954,M,,*54
$GPGSA,A,3,01,11,30,09,07,03,28,23,18,17,,,1.37,0.65,1.21*0D
$GLGSA,A,3,88,67,81,82,68,69,,,,,,,1.37,0.65,1.21*19
$GPGSV,4,1,14,41,80,160,37,09,73,213,42,11,52,094,46,23,45,163,33*70
$GPGSV,4,2,14,07,43,011,32,17,34,215,31,01,32,123,43,28,31,298,26*76
$GPGSV,4,3,14,18,27,091,30,08,25,033,,30,25,337,29,19,09,213,22*7A
$GPGSV,4,4,14,03,07,158,34,193,,,*78
$GLGSV,3,1,09,81,62,129,41,68,38,255,33,88,38,049,21,82,25,186,36*69
$GLGSV,3,2,09,67,24,192,31,78,21,019,,69,15,305,26,77,10,068,*60
$GLGSV,3,3,09,79,10,329,*5B
$GNRMC,094658.000,A,0730.690328,N,08022.007361,E,0.00,191.54,280219,,,D*72
$GNVTG,191.54,T,,M,0.00,N,0.00,K,D*2E
$GNGGA,094659.000,0730.690328,N,08022.007361,E,2,16,0.65,152.706,M,-95.954,M,,*55
$GPGSA,A,3,01,11,30,09,07,03,28,23,18,17,,,1.37,0.65,1.21*0D
$GLGSA,A,3,88,67,81,82,68,69,,,,,,,1.37,0.65,1.21*19
$GPGSV,4,1,14,41,80,160,37,09,73,213,42,11,52,094,46,23,45,163,34*77
$GPGSV,4,2,14,07,43,011,32,17,34,215,31,01,32,123,43,28,31,298,27*77
$GPGSV,4,3,14,18,27,091,29,08,25,033,,30,25,337,29,19,09,213,22*72
$GPGSV,4,4,14,03,07,158,34,193,,,*78
$GLGSV,3,1,09,81,62,129,41,68,38,255,34,88,38,049,21,82,25,186,37*6F
$GLGSV,3,2,09,67,24,192,31,78,21,019,,69,15,305,27,77,10,068,*61
$GLGSV,3,3,09,79,10,329,*5B
$GNRMC,094659.000,A,0730.690328,N,08022.007361,E,0.00,191.54,280219,,,D*73
$GNVTG,191.54,T,,M,0.00,N,0.00,K,D*2E
$GNGGA,094700.000,0730.690328,N,08022.007361,E,2,16,0.65,152.706,M,-95.954,M,,*58
$GPGSA,A,3,01,11,30,09,07,03,28,23,18,17,,,1.37,0.65,1.21*0D
$GLGSA,A,3,88,67,81,82,68,69,,,,,,,1.37,0.65,1.21*19
$GPGSV,4,1,14,41,80,160,37,09,73,213,42,11,52,094,46,23,45,163,35*76
$GPGSV,4,2,14,07,43,011,32,17,34,215,31,01,32,123,43,28,31,298,27*77
$GPGSV,4,3,14,18,27,091,29,08,25,033,,30,25,337,29,19,09,213,22*72
$GPGSV,4,4,14,03,07,158,34,193,,,*78
$GLGSV,3,1,09,81,62,129,41,68,38,255,33,88,38,049,21,82,25,186,37*68
$GLGSV,3,2,09,67,23,192,31,78,21,019,,69,15,305,28,77,10,068,*69
$GLGSV,3,3,09,79,10,329,*5B
$GNRMC,094700.000,A,0730.690328,N,08022.007361,E,0.00,191.54,280219,,,D*7E
$GNVTG,191.54,T,,M,0.00,N,0.00,K,D*2E
$GNGGA,094701.000,0730.690328,N,08022.007361,E,2,16,0.65,152.706,M,-95.954,M,,*59
$GPGSA,A,3,01,11,30,09,07,03,28,23,18,17,,,1.37,0.65,1.21*0D
$GLGSA,A,3,88,67,81,82,68,69,,,,,,,1.37,0.65,1.21*19
$GPGSV,4,1,14,41,80,160,36,09,73,213,42,11,52,094,46,23,45,163,36*74
$GPGSV,4,2,14,07,43,011,33,17,34,215,31,01,32,123,43,28,31,298,28*79
$GPGSV,4,3,14,18,27,091,29,08,25,033,,30,25,337,29,19,09,213,22*72
$GPGSV,4,4,14,03,07,158,34,193,,,*78
$GLGSV,3,1,09,81,62,129,41,88,38,049,20,68,37,254,33,82,25,186,37*67
$GLGSV,3,2,09,67,23,192,31,78,21,019,,69,15,305,29,77,10,068,*68
$GLGSV,3,3,09,79,10,329,*5B
$GNRMC,094701.000,A,0730.690328,N,08022.007361,E,0.00,191.54,280219,,,D*7F
$GNVTG,191.54,T,,M,0.00,N,0.00,K,D*2E
$GNGGA,094702.000,0730.690328,N,08022.007361,E,2,16,0.65,152.706,M,-95.954,M,,*5A
$GPGSA,A,3,01,11,30,09,07,03,28,23,18,17,,,1.37,0.65,1.21*0D
$GLGSA,A,3,88,67,81,82,68,69,,,,,,,1.37,0.65,1.21*19
$GPGSV,4,1,14,41,80,160,36,09,73,213,42,11,52,094,46,23,45,163,36*74
$GPGSV,4,2,14,07,43,011,33,17,34,215,30,01,32,123,43,28,31,298,28*78
$GPGSV,4,3,14,18,27,091,28,08,25,033,,30,25,337,29,19,09,213,22*73
$GPGSV,4,4,14,03,07,158,34,193,,,*78
$GLGSV,3,1,09,81,62,129,41,88,38,049,20,68,37,254,34,82,25,186,37*60
$GLGSV,3,2,09,67,23,192,31,78,21,019,,69,15,304,29,77,10,068,*69
$GLGSV,3,3,09,79,10,329,*5B
$GNRMC,094702.000,A,0730.690328,N,08022.007361,E,0.00,191.54,280219,,,D*7C
$GNVTG,191.54,T,,M,0.00,N,0.00,K,D*2E
$GNGGA,094703.000,0730.690328,N,08022.007361,E,2,16,0.65,152.706,M,-95.954,M,,*5B
$GPGSA,A,3,01,11,30,09,07,03,28,23,18,17,,,1.37,0.65,1.21*0D
$GLGSA,A,3,88,67,81,82,68,69,,,,,,,1.37,0.65,1.21*19
$GPGSV,4,1,14,41,80,160,36,09,73,213,42,11,52,094,46,23,45,163,36*74
$GPGSV,4,2,14,07,43,011,33,17,34,215,30,01,32,123,43,28,31,298,29*79
$GPGSV,4,3,14,18,27,091,27,08,25,033,,30,25,337,29,19,09,213,21*7F
$GPGSV,4,4,14,03,07,158,35,193,,,*79
$GLGSV,3,1,09,81,62,129,41,88,38,049,20,68,37,254,34,82,25,186,37*60
$GLGSV,3,2,09,67,23,192,31,78,21,019,,69,15,304,29,77,10,068,*69
$GLGSV,3,3,09,79,10,329,*5B
$GNRMC,094703.000,A,0730.690328,N,08022.007361,E,0.00,191.54,280219,,,D*7D
$GNVTG,191.54,T,,M,0.00,N,0.00,K,D*2E
$GNGGA,094704.000,0730.690328,N,08022.007361,E,2,16,0.65,152.706,M,-95.954,M,,*5C
$GPGSA,A,3,01,11,30,09,07,03,28,23,18,17,,,1.37,0.65,1.21*0D
$GLGSA,A,3,88,67,81,82,68,69,,,,,,,1.37,0.65,1.21*19
$GPGSV,4,1,14,41,80,160,36,09,73,213,41,11,52,094,46,23,45,163,37*76
$GPGSV,4,2,14,07,43,011,33,17,34,215,30,01,32,123,43,28,31,298,29*79
$GPGSV,4,3,14,18,27,091,26,08,25,033,,30,25,337,29,19,09,213,21*7E
$GPGSV,4,4,14,03,07,158,35,193,,,*79
$GLGSV,3,1,09,81,62,129,41,88,38,049,20,68,37,254,34,82,25,186,37*60
$GLGSV,3,2,09,67,23,192,31,78,21,019,,69,15,304,29,77,10,068,*69
$GLGSV,3,3,09,79,10,329,*5B
$GNRMC,094704.000,A,0730.690328,N,08022.007361,E,0.00,191.54,280219,,,D*7A
$GNVTG,191.54,T,,M,0.00,N,0.00,K,D*2E
$GNGGA,094705.000,0730.690328,N,08022.007361,E,2,16,0.65,152.706,M,-95.954,M,,*5D
$GPGSA,A,3,01,11,30,09,07,03,28,23,18,17,,,1.37,0.65,1.21*0D
$GLGSA,A,3,88,67,81,82,68,69,,,,,,,1.37,0.65,1.21*19
$GPGSV,4,1,14,41,80,160,36,09,73,213,41,11,52,094,46,23,45,163,37*76
$GPGSV,4,2,14,07,43,011,33,17,34,215,29,01,32,123,43,28,31,298,29*71
$GPGSV,4,3,14,18,27,091,26,08,25,033,,30,25,337,29,19,09,213,21*7E
$GPGSV,4,4,14,03,07,158,35,193,,,*79
$GLGSV,3,1,09,81,62,129,41,88,38,049,21,68,37,254,34,82,25,186,37*61
$GLGSV,3,2,09,67,23,192,31,78,21,019,,69,15,304,30,77,10,068,*61
$GLGSV,3,3,09,79,10,329,*5B
$GNRMC,094705.000,A,0730.690328,N,08022.007361,E,0.00,191.54,280219,,,D*7B
$GNVTG,191.54,T,,M,0.00,N,0.00,K,D*2E
$GNGGA,094706.000,0730.690328,N,08022.007361,E,2,16,0.65,152.706,M,-95.954,M,,*5E
$GPGSA,A,3,01,11,30,09,07,03,28,23,18,17,,,1.37,0.65,1.21*0D
$GLGSA,A,3,88,67,81,82,68,69,,,,,,,1.37,0.65,1.21*19
$GPGSV,4,1,14,41,80,160,36,09,73,213,41,11,52,094,46,23,45,163,37*76
$GPGSV,4,2,14,07,43,011,33,17,34,215,29,01,32,123,43,28,31,298,30*79
$GPGSV,4,3,14,18,27,091,26,08,25,033,,30,25,337,28,19,09,213,21*7F
$GPGSV,4,4,14,03,07,158,35,193,,,*79
$GLGSV,3,1,09,81,62,129,41,88,38,049,21,68,37,254,34,82,25,186,37*61
$GLGSV,3,2,09,67,23,192,31,78,21,019,,69,15,304,30,77,10,068,*61
$GLGSV,3,3,09,79,10,329,*5B
$GNRMC,094706.000,A,0730.690328,N,08022.007361,E,0.00,191.54,280219,,,D*78
$GNVTG,191.54,T,,M,0.00,N,0.00,K,D*2E
$GNGGA,094707.000,0730.690328,N,08022.007361,E,2,16,0.65,152.706,M,-95.954,M,,*5F
$GPGSA,A,3,01,11,30,09,07,03,28,23,18,17,,,1.37,0.65,1.21*0D
$GLGSA,A,3,88,67,81,82,68,69,,,,,,,1.37,0.65,1.21*19
$GPGSV,4,1,14,41,80,160,36,09,73,213,41,11,52,094,46,23,45,163,37*76
$GPGSV,4,2,14,07,43,011,32,17,34,215,30,01,32,123,43,28,31,298,31*71
$GPGSV,4,3,14,18,27,091,26,08,25,033,,30,25,337,27,19,09,213,21*70
$GPGSV,4,4,14,03,07,158,35,193,,,*79
$GLGSV,3,1,09,81,62,129,41,88,38,049,21,68,37,254,34,82,25,186,37*61
$GLGSV,3,2,09,67,23,192,31,78,21,019,,69,15,304,30,77,10,068,*61
$GLGSV,3,3,09,79,10,329,*5B
$GNRMC,094707.000,A,0730.690328,N,08022.007361,E,0.00,191.54,280219,,,D*79
$GNVTG,191.54,T,,M,0.00,N,0.00,K,D*2E
$GNGGA,094708.000,0730.690328,N,08022.007361,E,2,16,0.65,152.706,M,-95.954,M,,*50
$GPGSA,A,3,01,11,30,09,07,03,28,23,18,17,,,1.37,0.65,1.21*0D
$GLGSA,A,3,88,67,81,82,68,69,,,,,,,1.37,0.65,1.21*19
$GPGSV,4,1,14,41,80,160,35,09,73,213,41,11,52,094,46,23,45,163,38*7A
$GPGSV,4,2,14,07,43,011,32,17,34,215,30,01,32,123,43,28,31,298,31*71
$GPGSV,4,3,14,18,27,091,26,08,25,033,,30,25,337,27,19,09,213,20*71
$GPGSV,4,4,14,03,07,158,35,193,,,*79
$GLGSV,3,1,09,81,62,129,41,88,38,049,21,68,37,254,34,82,25,186,37*61
$GLGSV,3,2,09,67,23,192,31,78,21,019,,69,15,304,30,77,10,068,*61
$GLGSV,3,3,09,79,10,329,*5B
$GNRMC,094708.000,A,0730.690328,N,08022.007361,E,0.00,191.54,280219,,,D*76
$GNVTG,191.54,T,,M,0.00,N,0.00,K,D*2E
$GNGGA,094709.000,0730.690328,N,08022.007361,E,2,16,0.65,152.706,M,-95.954,M,,*51
$GPGSA,A,3,01,11,30,09,07,03,28,23,18,17,,,1.37,0.65,1.21*0D
$GLGSA,A,3,88,67,81,82,68,69,,,,,,,1.37,0.65,1.21*19
$GPGSV,4,1,14,41,80,160,36,09,73,213,41,11,52,094,46,23,45,163,38*79
$GPGSV,4,2,14,07,43,011,32,17,34,215,30,01,32,123,43,28,31,298,31*71
$GPGSV,4,3,14,18,27,091,26,08,25,033,,30,25,337,27,19,09,213,20*71
$GPGSV,4,4,14,03,07,158,35,193,,,*79
$GLGSV,3,1,09,81,62,129,41,88,38,049,21,68,37,254,35,82,25,186,37*60
$GLGSV,3,2,09,67,23,192,31,78,21,019,,69,15,304,30,77,10,068,*61
$GLGSV,3,3,09,79,10,329,*5B
$GNRMC,094709.000,A,0730.690328,N,08022.007361,E,0.00,191.54,280219,,,D*77
$GNVTG,191.54,T,,M,0.00,N,0.00,K,D*2E
$GNGGA,094710.000,0730.690328,N,08022.007361,E,2,16,0.65,152.706,M,-95.954,M,,*59
$GPGSA,A,3,01,11,30,09,07,03,28,23,18,17,,,1.37,0.65,1.21*0D
$GLGSA,A,3,88,67,81,82,68,69,,,,,,,1.37,0.65,1.21*19
$GPGSV,4,1,14,41,80,160,36,09,73,213,41,11,52,094,46,23,45,163,39*78
$GPGSV,4,2,14,07,43,011,32,17,34,215,30,01,32,123,43,28,31,298,31*71
$GPGSV,4,3,14,18,27,091,25,08,25,033,13,30,25,337,26,19,09,213,20*71
$GPGSV,4,4,14,03,07,158,35,193,,,*79
$GLGSV,3,1,09,81,62,129,41,88,38,049,21,68,37,254,35,82,25,186,37*60
$GLGSV,3,2,09,67,23,192,31,78,21,019,,69,15,304,30,77,10,069,*60
$GLGSV,3,3,09,79,10,329,*5B
$GNRMC,094710.000,A,0730.690328,N,08022.007361,E,0.00,191.54,280219,,,D*7F
$GNVTG,191.54,T,,M,0.00,N,0.00,K,D*2E
$GNGGA,094711.000,0730.690328,N,08022.007361,E,2,16,0.65,152.706,M,-95.954,M,,*58
$GPGSA,A,3,01,11,30,09,07,03,28,23,18,17,,,1.37,0.65,1.21*0D
$GLGSA,A,3,88,67,81,82,68,69,,,,,,,1.37,0.65,1.21*19
$GPGSV,4,1,14,41,80,160,36,09,73,213,41,11,52,094,45,23,45,163,40*75
$GPGSV,4,2,14,07,43,011,32,17,34,215,30,01,32,123,43,28,31,298,31*71
$GPGSV,4,3,14,18,27,091,25,08,25,033,14,30,25,337,26,19,09,213,20*76
$GPGSV,4,4,14,03,07,158,35,193,,,*79
$GLGSV,3,1,09,81,62,129,41,88,38,049,21,68,37,254,35,82,25,186,37*60
$GLGSV,3,2,09,67,23,192,31,78,21,020,,69,15,304,29,77,10,069,*62
$GLGSV,3,3,09,79,10,329,*5B
$GNRMC,094711.000,A,0730.690328,N,08022.007361,E,0.00,191.54,280219,,,D*7E
$GNVTG,191.54,T,,M,0.00,N,0.00,K,D*2E
$GNGGA,094712.000,0730.690328,N,08022.007361,E,2,16,0.65,152.706,M,-95.954,M,,*5B
$GPGSA,A,3,01,11,30,09,07,03,28,23,18,17,,,1.37,0.65,1.21*0D
$GLGSA,A,3,88,67,81,82,68,69,,,,,,,1.37,0.65,1.21*19
$GPGSV,4,1,14,41,80,160,36,09,73,213,41,11,52,094,45,23,45,163,40*75
$GPGSV,4,2,14,07,43,011,31,17,34,215,30,01,32,123,43,28,31,298,31*72
$GPGSV,4,3,14,18,27,091,26,08,25,033,15,30,25,337,26,19,09,213,19*7E
$GPGSV,4,4,14,03,07,158,35,193,,,*79
$GLGSV,3,1,09,81,62,129,41,88,38,049,21,68,37,254,35,82,25,186,37*60
$GLGSV,3,2,09,67,23,192,31,78,21,020,,69,15,304,28,77,10,069,*63
$GLGSV,3,3,09,79,10,330,*53
$GNRMC,094712.000,A,0730.690328,N,08022.007361,E,0.00,191.54,280219,,,D*7D
$GNVTG,191.54,T,,M,0.00,N,0.00,K,D*2E
$GNGGA,094713.000,0730.690328,N,08022.007361,E,2,17,0.61,152.706,M,-95.954,M,,*5F
$GPGSA,A,3,01,11,30,09,08,07,03,28,23,18,17,,1.33,0.61,1.18*0F
$GLGSA,A,3,88,67,81,82,68,69,,,,,,,1.33,0.61,1.18*13
$GPGSV,4,1,14,41,80,160,36,09,73,213,41,11,52,094,45,23,45,163,40*75
$GPGSV,4,2,14,07,43,011,31,17,34,215,30,01,32,123,43,28,31,298,31*72
$GPGSV,4,3,14,18,27,091,27,08,25,033,15,30,25,337,26,19,09,213,19*7F
$GPGSV,4,4,14,03,07,158,35,193,,,*79
$GLGSV,3,1,09,81,62,129,41,88,38,049,21,68,37,254,35,82,25,186,37*60
$GLGSV,3,2,09,67,23,192,31,78,21,020,,69,15,304,28,77,10,069,*63
$GLGSV,3,3,09,79,10,330,*53
$GNRMC,094713.000,A,0730.690328,N,08022.007361,E,0.00,191.54,280219,,,D*7C
$GNVTG,191.54,T,,M,0.00,N,0.00,K,D*2E
$GNGGA,094714.000,0730.690328,N,08022.007361,E,2,17,0.61,152.706,M,-95.954,M,,*58
$GPGSA,A,3,01,11,30,09,08,07,03,28,23,18,17,,1.33,0.61,1.18*0F
$GLGSA,A,3,88,67,81,82,68,69,,,,,,,1.33,0.61,1.18*13
$GPGSV,4,1,14,41,80,160,36,09,73,213,41,11,52,094,45,23,45,163,40*75
$GPGSV,4,2,14,07,43,011,31,17,34,215,31,01,32,123,43,28,31,298,31*73
$GPGSV,4,3,14,18,27,091,27,08,25,033,14,30,25,337,26,19,09,213,18*7F
$GPGSV,4,4,14,03,07,158,35,193,,,*79
$GLGSV,3,1,09,81,63,127,41,88,38,049,21,68,37,254,35,82,25,186,37*6F
$GLGSV,3,2,09,67,23,192,31,78,21,020,,69,15,304,28,77,10,069,*63
$GLGSV,3,3,09,79,10,330,*53
$GNRMC,094714.000,A,0730.690328,N,08022.007361,E,0.00,191.54,280219,,,D*7B
$GNVTG,191.54,T,,M,0.00,N,0.00,K,D*2E
$GNGGA,094715.000,0730.690328,N,08022.007361,E,2,16,0.65,152.706,M,-95.954,M,,*5C
$GPGSA,A,3,01,11,30,09,07,03,28,23,18,17,,,1.37,0.65,1.21*0D
$GLGSA,A,3,88,67,81,82,68,69,,,,,,,1.37,0.65,1.21*19
$GPGSV,4,1,14,41,80,160,36,09,73,213,41,11,52,094,45,23,45,163,40*75
$GPGSV,4,2,14,07,43,011,31,17,34,215,31,01,32,123,43,28,31,298,31*73
$GPGSV,4,3,14,18,27,091,27,08,25,033,,30,25,337,25,19,09,213,18*79
$GPGSV,4,4,14,03,07,158,35,193,,,*79
$GLGSV,3,1,09,81,63,127,41,88,38,049,21,68,37,254,34,82,26,186,37*6D
$GLGSV,3,2,09,67,23,192,31,78,21,020,,69,15,304,28,77,10,069,*63
$GLGSV,3,3,09,79,10,330,*53
$GNRMC,094715.000,A,0730.690328,N,08022.007361,E,0.00,191.54,280219,,,D*7A
$GNVTG,191.54,T,,M,0.00,N,0.00,K,D*2E
$GNGGA,094716.000,0730.690328,N,08022.007361,E,2,16,0.65,152.706,M,-95.954,M,,*5F
$GPGSA,A,3,01,11,30,09,07,03,28,23,18,17,,,1.37,0.65,1.21*0D
$GLGSA,A,3,88,67,81,82,68,69,,,,,,,1.37,0.65,1.21*19
$GPGSV,4,1,14,41,80,160,36,09,73,213,41,11,52,094,45,23,45,163,40*75
$GPGSV,4,2,14,07,43,011,30,17,34,215,32,01,32,123,42,28,31,298,31*70
$GPGSV,4,3,14,18,27,091,28,08,25,033,,30,25,337,25,19,09,213,18*76
$GPGSV,4,4,14,03,07,158,35,193,,,*79
$GLGSV,3,1,09,81,63,127,41,88,38,049,21,68,37,254,34,82,26,186,37*6D
$GLGSV,3,2,09,67,23,192,31,78,21,020,,69,15,304,28,77,10,069,*63
$GLGSV,3,3,09,79,10,330,*53
$GNRMC,094716.000,A,0730.690328,N,08022.007361,E,0.00,191.54,280219,,,D*79
$GNVTG,191.54,T,,M,0.00,N,0.00,K,D*2E
$GNGGA,094717.000,0730.690328,N,08022.007361,E,2,16,0.65,152.706,M,-95.954,M,,*5E
$GPGSA,A,3,01,11,30,09,07,03,28,23,18,17,,,1.37,0.65,1.21*0D
$GLGSA,A,3,88,67,81,82,68,69,,,,,,,1.37,0.65,1.21*19
$GPGSV,4,1,14,41,80,160,36,09,73,213,41,11,52,094,45,23,45,163,41*74
$GPGSV,4,2,14,07,43,011,30,17,34,215,33,01,32,123,42,28,31,298,31*71
$GPGSV,4,3,14,18,27,091,28,08,25,033,,30,25,337,25,19,09,213,19*77
$GPGSV,4,4,14,03,07,158,35,193,,,*79
$GLGSV,3,1,09,81,63,127,41,88,38,049,20,68,37,254,34,82,26,186,37*6C
$GLGSV,3,2,09,67,23,192,31,78,21,020,,69,15,304,28,77,10,069,*63
$GLGSV,3,3,09,79,10,330,*53
$GNRMC,094717.000,A,0730.690328,N,08022.007361,E,0.00,191.54,280219,,,D*78
[A$GNGGA,094718.000,0730.690328,N,08022.007361,E,2,16,0.65,152.706,M,-95.954,M,,*51
$GPGSA,A,3,01,11,30,09,07,03,28,23,18,17,,,1.37,0.65,1.21*0D
$GLGSA,A,3,88,67,81,82,68,69,,,,,,,1.37,0.65,1.21*19
$GPGSV,4,1,14,41,80,160,36,09,73,213,42,11,52,094,45,23,45,163,41*77
$GPGSV,4,2,14,07,43,011,30,17,34,215,33,01,32,123,42,28,31,298,31*71
$GPGSV,4,3,14,18,27,091,28,08,25,033,,30,25,337,25,19,09,213,20*7D
$GPGSV,4,4,14,03,07,158,35,193,,,*79
$GLGSV,3,1,09,81,63,127,41,88,38,049,21,68,37,254,33,82,26,186,37*6A
$GLGSV,3,2,09,67,23,192,30,78,21,020,,69,15,304,28,77,10,069,*62
$GLGSV,3,3,09,79,10,330,*53
$GNRMC,094718.000,A,0730.690328,N,08022.007361,E,0.00,191.54,280219,,,D*77
$GNVTG,191.54,T,,M,0.00,N,0.00,K,D*2E
$GNGGA,094719.000,0730.690328,N,08022.007361,E,2,16,0.65,152.706,M,-95.954,M,,*50
$GPGSA,A,3,01,11,30,09,07,03,28,23,18,17,,,1.37,0.65,1.21*0D
$GLGSA,A,3,88,67,81,82,68,69,,,,,,,1.37,0.65,1.21*19
$GPGSV,4,1,14,41,80,160,36,09,73,213,42,11,52,094,45,23,45,163,41*77
$GPGSV,4,2,14,07,43,011,30,17,34,215,33,01,32,123,42,28,31,298,30*70
$GPGSV,4,3,14,18,27,091,29,08,25,033,,30,25,337,25,19,09,213,20*7C
$GPGSV,4,4,14,03,07,158,35,193,,,*79
$GLGSV,3,1,09,81,63,127,40,88,38,049,21,68,37,254,33,82,26,186,37*6B
$GLGSV,3,2,09,67,23,192,30,78,21,020,,69,15,304,28,77,10,069,*62
$GLGSV,3,3,09,79,10,330,*53
$GNRMC,094719.000,A,0730.690328,N,08022.007361,E,0.00,191.54,280219,,,D*76
$GNVTG,191.54,T,,M,0.00,N,0.00,K,D*2E
$GNGGA,094720.000,0730.690328,N,08022.007361,E,2,16,0.65,152.706,M,-95.954,M,,*5A
$GPGSA,A,3,01,11,30,09,07,03,28,23,18,17,,,1.37,0.65,1.21*0D
$GLGSA,A,3,88,67,81,82,68,69,,,,,,,1.37,0.65,1.21*19
$GPGSV,4,1,14,41,80,160,35,09,73,213,42,11,52,094,45,23,45,163,41*74
$GPGSV,4,2,14,07,43,011,30,17,34,215,33,01,32,123,42,28,31,298,29*78
$GPGSV,4,3,14,18,27,091,29,08,25,033,,30,25,337,25,19,09,213,21*7D
$GPGSV,4,4,14,03,07,158,35,193,,,*79
$GLGSV,3,1,09,81,63,127,40,88,38,049,20,68,37,254,32,82,26,186,38*64
$GLGSV,3,2,09,67,23,192,29,78,21,020,,69,15,304,28,77,10,069,*6A
$GLGSV,3,3,09,79,10,330,*53
$GNRMC,094720.000,A,0730.690328,N,08022.007361,E,0.00,191.54,280219,,,D*7C
$GNVTG,191.54,T,,M,0.00,N,0.00,K,D*2E
aatt$GNGGA,094721.000,0730.690328,N,08022.007361,E,2,16,0.65,152.706,M,-95.954,M,,*5B
$GPGSA,A,3,01,11,30,09,07,03,28,23,18,17,,,1.37,0.65,1.21*0D
$GLGSA,A,3,88,67,81,82,68,69,,,,,,,1.37,0.65,1.21*19
$GPGSV,4,1,14,41,80,160,35,09,73,213,42,11,52,094,44,23,45,163,41*75
$GPGSV,4,2,14,07,43,011,30,17,34,215,32,01,32,123,42,28,31,298,28*78
$GPGSV,4,3,14,18,27,091,29,08,25,033,,30,25,337,25,19,09,213,21*7D
$GPGSV,4,4,14,03,07,158,35,193,,,*79
$GLGSV,3,1,09,81,63,127,40,88,38,048,19,68,37,254,32,82,26,186,38*6F
$GLGSV,3,2,09,67,23,192,30,78,21,020,,69,15,304,28,77,10,069,*62
$GLGSV,3,3,09,79,10,330,*53
$GNRMC,094721.000,A,0730.690328,N,08022.007361,E,0.00,191.54,280219,,,D*7D
$GNVTG,191.54,T,,M,0.00,N,0.00,K,D*2E
$GNGGA,094722.000,0730.690328,N,08022.007361,E,2,16,0.65,152.706,M,-95.954,M,,*58
$GPGSA,A,3,01,11,30,09,07,03,28,23,18,17,,,1.37,0.65,1.21*0D
$GLGSA,A,3,88,67,81,82,68,69,,,,,,,1.37,0.65,1.21*19
$GPGSV,4,1,14,41,80,160,35,09,73,213,42,11,52,094,44,23,45,163,41*75
$GPGSV,4,2,14,07,43,011,29,17,34,215,31,01,32,123,42,28,31,298,26*7D
$GPGSV,4,3,14,18,27,091,30,08,25,033,,30,25,337,26,19,09,213,21*76
$GPGSV,4,4,14,03,07,158,34,193,,,*78
$GLGSV,3,1,09,81,63,127,40,88,38,048,18,68,37,254,32,82,26,186,38*6E
$GLGSV,3,2,09,67,23,192,30,78,21,020,,69,15,304,27,77,10,069,*6D
$GLGSV,3,3,09,79,10,330,*53
$GNRMC,094722.000,A,0730.690328,N,08022.007361,E,0.00,191.54,280219,,,D*7E
$GNVTG,191.54,T,,M,0.00,N,0.00,K,D*2E
$GNGGA,094723.000,0730.690328,N,08022.007361,E,2,16,0.65,152.706,M,-95.954,M,,*59
$GPGSA,A,3,01,11,30,09,07,03,28,23,18,17,,,1.37,0.65,1.21*0D
$GLGSA,A,3,88,67,81,82,68,69,,,,,,,1.37,0.65,1.21*19
$GPGSV,4,1,14,41,80,160,35,09,73,213,42,11,52,094,44,23,45,163,41*75
$GPGSV,4,2,14,07,43,011,29,17,34,215,31,01,32,123,42,28,31,298,25*7E
$GPGSV,4,3,14,18,27,091,30,08,25,033,,30,25,337,26,19,09,213,21*76
$GPGSV,4,4,14,03,07,158,34,193,,,*78
$GLGSV,3,1,09,81,63,127,40,88,38,048,18,68,37,254,32,82,26,186,38*6E
$GLGSV,3,2,09,67,23,192,30,78,21,020,,69,15,304,27,77,10,069,*6D
$GLGSV,3,3,09,79,10,330,*53
$GNRMC,094723.000,A,0730.690328,N,08022.007361,E,0.00,191.54,280219,,,D*7F
$GNVTG,191.54,T,,M,0.00,N,0.00,K,D*2E
$GNGGA,094724.000,0730.690328,N,08022.007361,E,2,16,0.65,152.706,M,-95.954,M,,*5E
$GPGSA,A,3,01,11,30,09,07,03,28,23,18,17,,,1.37,0.65,1.21*0D
$GLGSA,A,3,88,67,81,82,68,69,,,,,,,1.37,0.65,1.21*19
$GPGSV,4,1,14,41,80,160,35,09,73,213,42,11,52,094,44,23,45,163,41*75
$GPGSV,4,2,14,07,43,011,29,17,34,215,31,01,32,123,42,28,31,298,25*7E
$GPGSV,4,3,14,18,27,091,30,08,25,033,,30,25,337,26,19,09,213,20*77
$GPGSV,4,4,14,03,07,158,33,193,,,*7F
$GLGSV,3,1,09,81,63,127,40,88,38,048,18,68,37,254,32,82,26,186,38*6E
$GLGSV,3,2,09,67,23,192,30,78,21,020,,69,15,304,26,77,10,069,*6C
$GLGSV,3,3,09,79,10,330,*53
$GNRMC,094724.000,A,0730.690328,N,08022.007361,E,0.00,191.54,280219,,,D*78
$GNVTG,191.54,T,,M,0.00,N,0.00,K,D*2E
$GNGGA,094725.000,0730.690328,N,08022.007361,E,2,16,0.65,152.706,M,-95.954,M,,*5F
$GPGSA,A,3,01,11,30,09,07,03,28,23,18,17,,,1.37,0.65,1.21*0D
$GLGSA,A,3,88,67,81,82,68,69,,,,,,,1.37,0.65,1.21*19
$GPGSV,4,1,14,41,80,160,35,09,73,213,42,11,52,094,44,23,45,163,41*75
$GPGSV,4,2,14,07,43,011,29,17,34,215,32,01,32,123,42,28,31,298,25*7D
$GPGSV,4,3,14,18,27,091,31,08,25,033,,30,25,337,26,19,09,213,19*7C
$GPGSV,4,4,14,03,07,158,33,193,,,*7F
$GLGSV,3,1,09,81,63,127,40,88,38,048,19,68,37,254,32,82,26,186,38*6F
$GLGSV,3,2,09,67,23,192,30,78,21,020,,69,15,304,26,77,10,069,*6C
$GLGSV,3,3,09,79,10,330,*53
$GNRMC,094725.000,A,0730.690328,N,08022.007361,E,0.00,191.54,280219,,,D*79
$GNVTG,191.54,T,,M,0.00,N,0.00,K,D*2E
$GNGGA,094726.000,0730.690328,N,08022.007361,E,2,16,0.65,152.706,M,-95.954,M,,*5C
$GPGSA,A,3,01,11,30,09,07,03,28,23,18,17,,,1.37,0.65,1.21*0D
$GLGSA,A,3,88,67,81,82,68,69,,,,,,,1.37,0.65,1.21*19
$GPGSV,4,1,14,41,80,160,35,09,73,213,42,11,52,094,44,23,45,163,41*75
$GPGSV,4,2,14,07,43,011,28,17,34,215,33,01,32,123,42,28,31,298,23*7B
$GPGSV,4,3,14,18,27,091,31,08,25,033,,30,25,337,26,19,09,213,18*7D
$GPGSV,4,4,14,03,07,158,33,193,,,*7F
$GLGSV,3,1,09,81,63,127,40,88,38,048,19,68,37,254,33,82,26,186,38*6E
$GLGSV,3,2,09,67,23,192,30,78,21,020,,69,15,304,26,77,10,069,*6C
$GLGSV,3,3,09,79,10,330,*53
$GNRMC,094726.000,A,0730.690328,N,08022.007361,E,0.00,191.54,280219,,,D*7A
$GNVTG,191.54,T,,M,0.00,N,0.00,K,D*2E
aatt$GNGGA,094727.000,0730.690328,N,08022.007361,E,2,16,0.65,152.706,M,-95.954,M,,*5D
$GPGSA,A,3,01,11,30,09,07,03,28,23,18,17,,,1.37,0.65,1.21*0D
$GLGSA,A,3,88,67,81,82,68,69,,,,,,,1.37,0.65,1.21*19
$GPGSV,4,1,14,41,80,160,35,09,73,213,41,11,52,094,44,23,45,163,41*76
$GPGSV,4,2,14,07,43,011,27,17,34,215,34,01,32,123,42,28,31,298,22*72
$GPGSV,4,3,14,18,27,091,30,08,25,033,,30,25,337,26,19,09,213,18*7C
$GPGSV,4,4,14,03,07,158,33,193,,,*7F
$GLGSV,3,1,09,81,63,127,39,88,38,048,19,68,37,254,33,82,26,186,38*60
$GLGSV,3,2,09,67,23,192,30,78,21,020,,69,15,304,26,77,10,069,*6C
$GLGSV,3,3,09,79,10,330,*53
$GNRMC,094727.000,A,0730.690328,N,08022.007361,E,0.00,191.54,280219,,,D*7B
$GNVTG,191.54,T,,M,0.00,N,0.00,K,D*2E
+c+c$GNGGA,094728.000,0730.690328,N,08022.007361,E,2,16,0.65,152.706,M,-95.954,M,,*52
$GPGSA,A,3,01,11,30,09,07,03,28,23,18,17,,,1.37,0.65,1.21*0D
$GLGSA,A,3,88,67,81,82,68,69,,,,,,,1.37,0.65,1.21*19
$GPGSV,4,1,14,41,80,160,35,09,73,213,41,11,52,094,44,23,45,163,41*76
$GPGSV,4,2,14,07,43,011,26,17,34,215,34,01,32,123,42,28,31,298,21*70
$GPGSV,4,3,14,18,27,091,30,08,25,033,,30,25,337,26,19,09,213,18*7C
$GPGSV,4,4,14,03,07,158,33,193,,,*7F
$GLGSV,3,1,09,81,63,127,39,88,38,048,19,68,37,254,34,82,26,186,38*67
$GLGSV,3,2,09,67,23,192,29,78,21,020,,69,15,304,26,77,10,069,*64
$GLGSV,3,3,09,79,10,330,*53
$GNRMC,094728.000,A,0730.690328,N,08022.007361,E,0.00,191.54,280219,,,D*74
$GNVTG,191.54,T,,M,0.00,N,0.00,K,D*2E
$GNGGA,094729.000,0730.690328,N,08022.007361,E,2,16,0.65,152.706,M,-95.954,M,,*53
$GPGSA,A,3,01,11,30,09,07,03,28,23,18,17,,,1.37,0.65,1.21*0D
$GLGSA,A,3,88,67,81,82,68,69,,,,,,,1.37,0.65,1.21*19
$GPGSV,4,1,14,41,80,160,36,09,73,213,41,11,52,094,44,23,45,163,41*75
$GPGSV,4,2,14,07,43,011,26,17,34,215,34,01,32,123,41,28,31,298,22*70
$GPGSV,4,3,14,18,27,091,30,08,25,033,,30,25,337,26,19,09,213,19*7D
$GPGSV,4,4,14,03,07,158,33,193,,,*7F
$GLGSV,3,1,09,81,63,127,39,88,38,048,19,68,37,254,35,82,26,186,38*66
$GLGSV,3,2,09,67,23,192,29,78,21,020,,69,15,304,26,77,10,069,*64
$GLGSV,3,3,09,79,10,330,*53
$GNRMC,094729.000,A,0730.690328,N,08022.007361,E,0.00,191.54,280219,,,D*75
$GNVTG,191.54,T,,M,0.00,N,0.00,K,D*2E
gg$GNGGA,094730.000,0730.690328,N,08022.007361,E,2,16,0.65,152.706,M,-95.954,M,,*5B
$GPGSA,A,3,01,11,30,09,07,03,28,23,18,17,,,1.37,0.65,1.21*0D
$GLGSA,A,3,88,67,81,82,68,69,,,,,,,1.37,0.65,1.21*19
$GPGSV,4,1,14,41,80,160,36,09,73,213,41,11,52,094,44,23,45,163,41*75
$GPGSV,4,2,14,07,43,011,25,17,34,215,34,01,32,123,41,28,31,298,23*72
$GPGSV,4,3,14,18,27,091,30,08,25,033,,30,25,337,26,19,09,213,19*7D
$GPGSV,4,4,14,03,07,158,33,193,,,*7F
$GLGSV,3,1,09,81,63,127,39,88,38,048,19,68,37,254,35,82,26,186,38*66
$GLGSV,3,2,09,67,23,192,29,78,21,020,,69,15,304,26,77,10,069,*64
$GLGSV,3,3,09,79,10,330,*53
$GNRMC,094730.000,A,0730.690328,N,08022.007361,E,0.00,191.54,280219,,,D*7D
$GNVTG,191.54,T,,M,0.00,N,0.00,K,D*2E
nn$GNGGA,094731.000,0730.690328,N,08022.007361,E,2,16,0.65,152.706,M,-95.954,M,,*5A
$GPGSA,A,3,01,11,30,09,07,03,28,23,18,17,,,1.37,0.65,1.21*0D
$GLGSA,A,3,88,67,81,82,68,69,,,,,,,1.37,0.65,1.21*19
$GPGSV,4,1,14,41,80,160,36,09,73,213,41,11,52,094,44,23,45,163,41*75
$GPGSV,4,2,14,07,43,011,24,17,34,215,34,01,32,123,41,28,31,298,24*74
$GPGSV,4,3,14,18,27,091,30,08,25,033,,30,25,337,26,19,09,213,19*7D
$GPGSV,4,4,14,03,07,158,32,193,,,*7E
$GLGSV,3,1,09,81,63,127,39,88,38,048,19,68,37,254,35,82,26,186,38*66
$GLGSV,3,2,09,67,23,192,29,78,21,020,,69,15,304,26,77,10,069,*64
$GLGSV,3,3,09,79,10,330,*53
$GNRMC,094731.000,A,0730.690328,N,08022.007361,E,0.00,191.54,280219,,,D*7C
$GNVTG,191.54,T,,M,0.00,N,0.00,K,D*2E
tt$GNGGA,094732.000,0730.690328,N,08022.007361,E,2,16,0.65,152.706,M,-95.954,M,,*59
$GPGSA,A,3,01,11,30,09,07,03,28,23,18,17,,,1.37,0.65,1.21*0D
$GLGSA,As,3,88,67,81,82,68,69,,,,,,,1.37,0.65,1.21*19
$GPGSV,4,1,14,41,80,160,36,09,73,213,41,11,52,094,44,23,45,163,41*75
$GPGSV,4,2,14,07,43,011,24,17,34,215,34,01,32,123,41,28,31,298,24*74
$GPGSV,4,3,14,18,27,091,30,08,25,033,,30,25,337,26,19,09,213,19*7D
$GPGSV,4,4,14,03,07,158,32,193,,,*7E
$GLGSV,3,1,09,81,63,127,39,88,38,048,19,68,37,254,35,82,26,186,38*66
$GLGSV,3,2,09,67,23,192,29,78,21,020,,69,15,304,26,77,10,069,*64
s$GLGSV,3,3,09,79,10,330,*53
$GNRMC,094732.000,A,0730.690328,N,08022.007361,E,0.00,191.54,280219,,,D*7F
$GNVTG,191.54,T,,M,0.00,N,0.00,K,D*2E
tt$GNGGA,094733.000,0730.690328,N,08022.007361,E,2,16,0.65,152.706,M,-95.954,M,,*58
$GPGSA,A,3,01,11,30,09,07,03,28,23,18,17,,,1.37,0.65,1.21*0D
$GLGSA,A,3,88,67,81,82,68,69,,,,,,,1.37,0.65,1.21*19
$GPGSV,4,1,14,41,80,160,36,09,73,213,41,11,52,094,44,23,45,163,41*75
$GPGSV,4,2,14,07,43,011,24,17,34,215,34,01,32,123,41,28,31,298,24*74
$GPGSV,4,3,14,18,27,091,30,08,25,033,,30,25,337,26,19,09,213,20*77
$GPGSV,4,4,14,03,07,158,32,193,,,*7E
$GLGSV,3,1,09,81,63,127,39,88,38,048,19,68,37,254,35,82,26,186,38*66
$GLGSV,3,2,09,67,23,192,29,78,21,020,,69,15,304,26,77,10,069,*64
$GLGSV,3,3,09,79,10,330,*53
$GNRMC,094733.000,A,0730.690328,N,08022.007361,E,0.00,191.54,280219,,,D*7E
$GNVTG,191.54,T,,M,0.00,N,0.00,K,D*2E
$GNGGA,094734.000,0730.690328,N,08022.007361,E,2,16,0.65,152.706,M,-95.954,M,,*5F
$GPGSA,A,3,01,11,30,09,07,03,28,23,18,17,,,1.37,0.65,1.21*0D
$GLGSA,A,3,88,67,81,82,68,69,,,,,,,1.37,0.65,1.21*19
$GPGSV,4,1,14,41,80,160,36,09,73,213,41,11,52,094,44,23,45,163,41*75
$GPGSV,4,2,14,07,43,011,25,17,34,215,35,01,32,123,41,28,31,298,25*75
$GPGSV,4,3,14,18,27,091,31,08,25,033,,30,25,337,25,19,09,213,21*74
$GPGSV,4,4,14,03,07,158,32,193,,,*7E
$GLGSV,3,1,09,81,63,127,39,88,38,048,19,68,37,254,35,82,26,186,38*66
$GLGSV,3,2,09,67,23,192,29,78,21,020,,69,15,304,26,77,10,069,*64
$GLGSV,3,3,09,79,10,330,*53
$GNRMC,094734.000,A,0730.690328,N,08022.007361,E,0.00,191.54,280219,,,D*79
$GNVTG,191.54,T,,M,0.00,N,0.00,K,D*2E
GNGGA,094735.000,0730.690328,N,08022.007361,E,2,16,0.65,152.706,M,-95.954,M,,*5E
$GPGSA,A,3,01,11,30,09,07,03,28,23,18,17,,,1.37,0.65,1.21*0D
$GLGSA,A,3,88,67,81,82,68,69,,,,,,,1.37,0.65,1.21*19
$GPGSV,4,1,14,41,80,160,36,09,73,213,41,11,52,094,44,23,45,163,40*74
$GPGSV,4,2,14,07,43,011,25,17,34,215,36,01,32,123,41,28,31,298,26*75
$GPGSV,4,3,14,18,27,091,32,08,25,033,,30,25,337,25,19,09,213,21*77
$GPGSV,4,4,14,03,07,158,32,193,,,*7E
$GLGSV,3,1,09,81,63,127,39,88,38,048,18,68,37,254,35,82,26,186,38*67
$GLGSV,3,2,09,67,23,192,29,78,21,020,,69,15,304,25,77,10,069,*67
$GLGSV,3,3,09,79,10,330,*53
$GNRMC,094735.000,A,0730.690328,N,08022.007361,E,0.00,191.54,280219,,,D*78
$GNVTG,191.54,T,,M,0.00,N,0.00,K,D*2E
$GNGGA,094736.000,0730.690328,N,08022.007361,E,2,16,0.65,152.706,M,-95.954,M,,*5D
$GPGSA,A,3,01,11,30,09,07,03,28,23,18,17,,,1.37,0.65,1.21*0D
$GLGSA,A,3,88,67,81,82,68,69,,,,,,,1.37,0.65,1.21*19
$GPGSV,4,1,14,41,80,160,36,09,73,213,41,11,52,094,44,23,45,163,40*74
$GPGSV,4,2,14,07,43,011,26,17,34,215,36,01,32,123,41,28,31,298,27*77
$GPGSV,4,3,14,18,27,091,32,08,25,033,,30,25,337,25,19,09,213,21*77
$GPGSV,4,4,14,03,07,158,32,193,,,*7E
$GLGSV,3,1,09,81,63,127,39,88,38,048,18,68,37,254,35,82,26,186,38*67
$GLGSV,3,2,09,67,23,192,29,78,21,020,,69,15,304,24,77,10,069,*66
$GLGSV,3,3,09,79,10,330,*53
$GNRMC,094736.000,A,0730.690328,N,08022.007361,E,0.00,191.54,280219,,,D*7B
$GNVTG,191.54,T,,M,0.00,N,0.00,K,D*2E
$GNGGA,094737.000,0730.690328,N,08022.007361,E,2,16,0.65,152.706,M,-95.954,M,,*5C
$GPGSA,A,3,01,11,30,09,07,03,28,23,18,17,,,1.37,0.65,1.21*0D
$GLGSA,A,3,88,67,81,82,68,69,,,,,,,1.37,0.65,1.21*19
$GPGSV,4,1,14,41,80,160,36,09,73,213,41,11,52,094,44,23,45,163,40*74
$GPGSV,4,2,14,07,43,011,25,17,34,215,36,01,32,123,40,28,31,298,28*7A
$GPGSV,4,3,14,18,27,091,32,08,25,033,,30,25,337,25,19,09,213,21*77
$GPGSV,4,4,14,03,07,158,32,193,,,*7E
$GLGSV,3,1,09,81,63,127,39,88,38,048,17,68,37,254,35,82,26,186,38*68
$GLGSV,3,2,09,67,23,192,30,78,21,020,,69,15,304,24,77,10,069,*6E
$GLGSV,3,3,09,79,10,330,*53
$GNRMC,094737.000,A,0730.690328,N,08022.007361,E,0.00,191.54,280219,,,D*7A
$GNVTG,191.54,T,,M,0.00,N,0.00,K,D*2E
$GNGGA,094738.000,0730.690328,N,08022.007361,E,2,16,0.65,152.706,M,-95.954,M,,*53
$GPGSA,A,3,01,11,30,09,07,03,28,23,18,17,,,1.37,0.65,1.21*0D
$GLGSA,A,3,88,67,81,82,68,69,,,,,,,1.37,0.65,1.21*19
$GPGSV,4,1,14,41,80,160,36,09,73,213,40,11,52,094,44,23,45,163,39*7B
$GPGSV,4,2,14,07,43,011,26,17,34,215,35,01,32,123,39,28,31,298,29*75
$GPGSV,4,3,14,18,27,091,32,08,25,033,,30,25,337,25,19,09,213,22*74
$GPGSV,4,4,14,03,07,158,32,193,,,*7E
$GLGSV,3,1,09,81,63,127,39,88,38,048,17,68,37,254,36,82,26,186,38*6B
$GLGSV,3,2,09,67,23,192,30,78,21,020,,69,15,304,24,77,10,069,*6E
$GLGSV,3,3,09,79,10,330,*53
$GNRMC,094738.000,A,0730.690328,N,08022.007361,E,0.00,191.54,280219,,,D*75
$GNVTG,191.54,T,,M,0.00,N,0.00,K,D*2E
$GNGGA,094739.000,0730.690328,N,08022.007361,E,2,16,0.65,152.706,M,-95.954,M,,*52
$GPGSA,A,3,01,11,30,09,07,03,28,23,18,17,,,1.37,0.65,1.21*0D
$GLGSA,A,3,88,67,81,82,68,69,,,,,,,1.37,0.65,1.21*19
$GPGSV,4,1,14,41,80,160,36,09,73,213,40,11,52,094,44,23,45,163,39*7B
$GPGSV,4,2,14,07,43,011,27,17,34,215,35,01,32,123,38,28,31,298,29*75
$GPGSV,4,3,14,18,27,091,32,08,25,033,,30,25,337,24,19,09,213,22*75
$GPGSV,4,4,14,03,07,158,32,193,,,*7E
$GLGSV,3,1,09,81,63,127,39,88,38,048,16,68,37,254,35,82,26,186,38*69
$GLGSV,3,2,09,67,23,192,31,78,21,020,,69,15,304,23,77,10,069,*68
$GLGSV,3,3,09,79,10,330,*53
$GNRMC,094739.000,A,0730.690328,N,08022.007361,E,0.00,191.54,280219,,,D*74
$GNVTG,191.54,T,,M,0.00,N,0.00,K,D*2E
==00$GNGGA,094740.000,0730.690328,N,08022.007361,E,2,16,0.65,152.706,M,-95.954,M,,*5C
$GPGSA,A,3,01,11,30,09,07,03,28,23,18,17,,,1.37,0.65,1.21*0D
$GLGSA,A,3,88,67,81,82,68,69,,,,,,,1.37,0.65,1.21*19
$GPGSV,4,1,14,41,80,160,36,09,73,213,40,11,52,094,44,23,45,163,39*7B
$GPGSV,4,2,14,07,43,011,28,17,34,215,35,01,32,123,38,28,31,298,29*7A
$GPGSV,4,3,14,18,27,091,31,08,25,033,,30,25,337,22,19,09,213,22*70
$GPGSV,4,4,14,03,07,158,32,193,,,*7E
$GLGSV,3,1,09,81,63,127,39,88,38,048,15,68,37,254,35,82,26,186,38*6A
$GLGSV,3,2,09,67,23,192,31,78,21,020,,69,15,304,23,77,10,069,*68
$GLGSV,3,3,09,79,10,330,*53
$GNRMC,094740.000,A,0730.690328,N,08022.007361,E,0.00,191.54,280219,,,D*7A
$GNVTG,191.54,T,,M,0.00,N,0.00,K,D*2E


ERROR
$GNGGA,094741.000,0730.690328,N,08022.007361,E,2,15,0.69,152.706,M,-95.954,M,,*52
$GPGSA,A,3,01,11,09,07,03,28,23,18,17,,,,1.42,0.69,1.24*05
$GLGSA,A,3,88,67,81,82,68,69,,,,,,,1.42,0.69,1.24*12
$GPGSV,4,1,14,41,80,160,36,09,73,213,39,11,52,094,44,23,45,163,39*75
$GPGSV,4,2,14,07,43,011,29,17,34,215,35,01,32,123,38,28,31,298,29*7B
$GPGSV,4,3,14,18,27,091,31,08,25,033,,30,25,337,21,19,09,213,23*72
$GPGSV,4,4,14,03,07,158,32,193,,,*7E
$GLGSV,3,1,09,81,63,127,39,88,38,048,15,68,37,254,35,82,26,186,38*6A
$GLGSV,3,2,09,67,23,192,31,78,21,020,,69,15,304,23,77,10,069,*68
$GLGSV,3,3,09,79,10,330,*53
$GNRMC,094741.000,A,0730.690328,N,08022.007361,E,0.00,191.54,280219,,,D*7B
$GNVTG,191.54,T,,M,0.00,N,0.00,K,D*2E
$GNGGA,094742.000,0730.690328,N,08022.007361,E,2,16,0.65,152.706,M,-95.954,M,,*5E
$GPGSA,A,3,01,11,30,09,07,03,28,23,18,17,,,1.37,0.65,1.21*0D
$GLGSA,A,3,88,67,81,82,68,69,,,,,,,1.37,0.65,1.21*19
$GPGSV,4,1,14,41,80,160,36,09,73,213,39,11,52,094,44,23,45,163,39*75
$GPGSV,4,2,14,07,43,011,29,17,34,215,35,01,32,123,38,28,31,298,30*73
$GPGSV,4,3,14,18,27,091,31,08,25,033,,30,25,337,21,19,09,213,24*75
$GPGSV,4,4,14,03,07,158,32,193,,,*7E
$GLGSV,3,1,09,81,63,127,39,88,38,048,15,68,37,254,35,82,26,186,38*6A
$GLGSV,3,2,09,67,23,192,31,78,21,020,,69,15,304,24,77,10,069,*6F
$GLGSV,3,3,09,79,10,330,*53
$GNRMC,094742.000,A,0730.690328,N,08022.007361,E,0.00,191.54,280219,,,D*78
$GNVTG,191.54,T,,M,0.00,N,0.00,K,D*2E
$GNGGA,094743.000,0730.690328,N,08022.007361,E,2,16,0.65,152.706,M,-95.954,M,,*5F
$GPGSA,A,3,01,11,30,09,07,03,28,23,18,17,,,1.37,0.65,1.21*0D
$GLGSA,A,3,88,67,81,82,68,69,,,,,,,1.37,0.65,1.21*19
$GPGSV,4,1,14,41,80,160,36,09,73,213,39,11,52,094,44,23,45,163,39*75
$GPGSV,4,2,14,07,43,011,29,17,34,215,35,01,32,123,38,28,31,298,30*73
$GPGSV,4,3,14,18,27,091,31,08,25,033,,30,25,337,22,19,09,213,24*76
$GPGSV,4,4,14,03,07,158,32,193,,,*7E
$GLGSV,3,1,09,81,63,127,39,88,38,048,14,68,37,254,35,82,26,186,38*6B
$GLGSV,3,2,09,67,23,192,31,78,21,020,,69,15,304,24,77,10,069,*6F
$GLGSV,3,3,09,79,10,330,*53
$GNRMC,094743.000,A,0730.690328,N,08022.007361,E,0.00,191.54,280219,,,D*79
$GNVTG,191.54,T,,M,0.00,N,0.00,K,D*2E
$GNGGA,094744.000,0730.690328,N,08022.007361,E,2,16,0.65,152.706,M,-95.954,M,,*58
$GPGSA,A,3,01,11,30,09,07,03,28,23,18,17,,,1.37,0.65,1.21*0D
$GLGSA,A,3,88,67,81,82,68,69,,,,,,,1A.37,0.65,1.21*19
$GPGSV,4,1,14,41,80,160,36,09,73,213,39,11,52,094,44,23,45,163,39*75
$GPGSV,4,2,14,07,43,011,29,17,34,215,35,01,32,123,38,28,31,298,30*73
$GPGSV,4,3,14,18,27,091,30,08,25,033,,30,25,337,23,19,09,213,24*76
$GPGSV,4,4,14,03,07,158,32,193,,,*7E
$GLGSV,3,1,09,81,63,127,39,88,38,048,16,68,37,254,34,82,26,186,38*68
$GLGSV,3,2,09,67,23,192,31,78,21,020,,69,15,304,24,77,10,069,*6F
$GLGSV,3,3,09,79,10,330,*53
$GNRMC,094744.000,A,0730.690328,N,08022.007361,E,0.00,191.54,280219,,,D*7E
A$GNVTG,191.54,T,,M,0.00,N,0.00,K,D*2E
TT

OK
$GNGGA,094745.000,0730.690328,N,08022.007361,E,2,16,0.65,152.706,M,-95.954,M,,*59
$GPGSA,A,3,01,11,30,09,07,03,28,23,18,17,,,1.37,0.65,1.21*0D
$GLGSA,A,3,88,67,81,82,68,69,,,,,,,1.37,0.65,1.21*19
$GPGSV,4,1,14,41,80,160,36,09,73,213,39,11,52,094,44,23,45,163,39*75
$GPGSV,4,2,14,07,43,011,29,17,34,215,35,01,32,123,38,28,31,298,31*72
$GPGSV,4,3,14,18,27,091,30,08,25,033,,30,25,337,23,19,09,213,24*76
$GPGSV,4,4,14,03,07,158,32,193,,,*7E
$GLGSV,3,1,09,81,63,127,39,88,38,048,17,68,37,254,34,82,26,186,38*69
$GLGSV,3,2,09,67,23,192,31,78,21,020,,69,15,304,24,77,10,069,*6F
$GLGSV,3,3,09,79,10,330,*53
$GNRMC,094745.000,A,0730.690328,N,08022.007361,E,0.00,191.54,280219,,,D*7F
$GNVTG,191.54,T,,M,0.00,N,0.00,K,D*2E
$GNGGA,094746.000,0730.690328,N,08022.007361,E,2,16,0.65,152.706,M,-95.954,M,,*5A
$GPGSA,A,3,01,11,30,09,07,03,28,23,18,17,,,1.37,0.65,1.21*0D
$GLGSA,A,3,88,67,81,82,68,69,,,,,,,1.37,0.65,1.21*19
$GPGSV,4,1,14,41,80,160,36,09,73,213,39,11,52,094,44,23,45,163,39*75
$GPGSV,4,2,14,07,43,011,30,17,34,215,35,01,32,123,38,28,31,298,31*7A
$GPGSV,4,3,14,18,27,091,30,08,25,033,,30,25,337,22,19,09,213,24*77
$GPGSV,4,4,14,03,07,158,32,193,,,*7E
$GLGSV,3,1,09,81,63,127,39,88,38,048,16,68,37,254,34,82,26,186,38*68
$GLGSV,3,2,09,67,23,192,31,78,21,020,,69,15,304,25,77,10,069,*6E
$GLGSV,3,3,09,79,10,330,*53
$GNRMC,094746.000,A,0730.690328,N,08022.007361,E,0.00,191.54,280219,,,D*7C
$GNVTG,191.54,T,,M,0.00,N,0.00,K,D*2E
$GNGGA,094747.000,0730.690328,N,08022.007361,E,2,16,0.65,152.706,M,-95.954,M,,*5B
$GPGSA,A,3,01,11,30,09,07,03,28,23,18,17,,,1.37,0.65,1.21*0D
$GLGSA,A,3,88,67,81,82,68,69,,,,,,,1.37,0.65,1.21*19
$GPGSV,4,1,14,41,80,160,36,09,73,213,39,11,52,094,44,23,45,163,39*75
$GPGSV,4,2,14,07,43,011,31,17,34,215,35,01,32,123,38,28,31,298,32*78
$GPGSV,4,3,14,18,27,091,30,08,25,033,,30,25,337,21,19,09,213,24*74
$GPGSV,4,4,14,03,07,158,32,193,,,*7E
$GLGSV,3,1,09,81,63,127,39,88,38,048,16,68,37,254,34,82,26,186,38*68
$GLGSV,3,2,09,67,23,192,31,78,21,020,,69,15,304,24,77,10,069,*6F
$GLGSV,3,3,09,79,10,330,*53
$GNRMC,094747.000,A,0730.690328,N,08022.007361,E,0.00,191.54,280219,,,D*7D
$GNVTG,191.54,T,,M,0.00,N,0.00,K,D*2E
$GNGGA,094748.000,0730.690328,N,08022.007361,E,2,16,0.65,152.706,M,-95.954,M,,*54
$GPGSA,A,3,01,11,30,09,07,03,28,23,18,17,,,1.01,0.65,0.77*0A
$GLGSA,A,3,88,67,81,82,68,69,,,,,,,1.01,0.65,0.77*1E
$GPGSV,4,1,14,41,80,160,36,09,73,213,38,11,52,094,44,23,45,163,39*74
$GPGSV,4,2,14,07,43,011,32,17,34,215,35,01,32,123,38,28,31,298,32*7B
$GPGSV,4,3,14,18,27,091,30,08,25,033,,30,25,337,21,19,09,213,24*74
$GPGSV,4,4,14,03,07,158,32,193,,,*7E
$GLGSV,3,1,09,81,63,127,39,88,38,048,16,68,37,254,34,82,26,186,38*68
$GLGSV,3,2,09,67,23,192,31,78,21,020,23,69,15,304,24,77,10,069,*6E
$GLGSV,3,3,09,79,10,330,*53
$GNRMC,094748.000,A,0730.690328,N,08022.007361,E,0.00,191.54,280219,,,D*72
$GNVTG,191.54,T,,M,0.00,N,0.00,K,D*2E
$GNGGA,094749.000,0730.690328,N,08022.007361,E,2,16,0.65,152.706,M,-95.954,M,,*55
$GPGSA,A,3,01,11,30,09,07,03,28,23,18,17,,,1.37,0.65,1.21*0D
$GLGSA,A,3,88,67,81,82,68,69,,,,,,,1.37,0.65,1.21*19
$GPGSV,4,1,14,41,80,160,36,09,73,213,37,11,52,094,44,23,45,163,39*7B
$GPGSV,4,2,14,07,43,011,32,17,34,215,35,01,32,123,38,28,31,298,32*7B
$GPGSV,4,3,14,18,27,091,29,08,25,033,,30,25,337,21,19,09,213,24*7C
$GPGSV,4,4,14,03,07,158,33,193,,,*7F
$GLGSV,3,1,09,81,63,127,39,88,38,048,16,68,37,254,34,82,26,186,38*68
$GLGSV,3,2,09,67,23,192,31,78,21,020,21,69,15,304,24,77,10,069,*6C
$GLGSV,3,3,09,79,10,330,*53
$GNRMC,094749.000,A,0730.690328,N,08022.007361,E,0.00,191.54,280219,,,D*73
$GNVTG,191.54,T,,M,0.00,N,0.00,K,D*2E
$GNGGA,094750.000,0730.690328,N,08022.007361,E,2,16,0.65,152.706,M,-95.954,M,,*5D
$GPGSA,A,3,01,11,30,09,07,03,28,23,18,17,,,1.37,0.65,1.21*0D
$GLGSA,A,3,88,67,81,82,68,69,,,,,,,1.37,0.65,1.21*19
$GPGSV,4,1,14,41,80,160,36,09,73,213,37,11,52,094,44,23,45,163,39*7B
$GPGSV,4,2,14,07,43,011,33,17,34,215,35,01,32,123,38,28,31,298,33*7B
$GPGSV,4,3,14,18,27,091,28,08,25,033,,30,25,337,20,19,09,213,24*7C
$GPGSV,4,4,14,03,07,158,33,193,,,*7F
$GLGSV,3,1,09,81,63,127,39,88,38,048,16,68,37,254,35,82,26,186,38*69
$GLGSV,3,2,09,67,23,192,31,78,21,020,,69,15,304,24,77,10,069,*6F
$GLGSV,3,3,09,79,10,330,*53
$GNRMC,094750.000,A,0730.690328,N,08022.007361,E,0.00,191.54,280219,,,D*7B
$GNVTG,191.54,T,,M,0.00,N,0.00,K,D*2E
AA$GNGGA,094751.000,0730.690328,N,08022.007361,E,2,16,0.65,152.706,M,-95.954,M,,*5C
$GPGSA,A,3,01,11,30,09,07,03,28,23,18,17,,,1.37,0.65,1.21*0D
$GLGSA,A,3,88,67,81,82,68,69,,,,,,,1.37,0.65,1.21*19
$GPGSV,4,1,14,41,80,160,36,09,73,213,37,11,52,094,45,23,45,163,39*7A
$GPGSV,4,2,14,07,43,011,32,17,34,215,35,01,32,123,38,28,31,298,33*7A
$GPGSV,4,3,14,18,27,091,26,08,25,033,,30,25,337,20,19,09,213,23*75
$GPGSV,4,4,14,03,07,158,33,193,,,*7F
$GLGSV,3,1,09,81,63,127,39,88,38,048,16,68,37,254,35,82,26,186,38*69
$GLGSV,3,2,09,67,23,192,31,78,21,020,,69,15,304,24,77,10,069,*6F
$GLGSV,3,3,09,79,10,330,*53
$GNRMC,094751.000,A,0730.690328,N,08022.007361,E,0.00,191.54,280219,,,D*7A
$GNVTG,191.54,T,,M,0.00,N,0.00,K,D*2E
TT$GNGGA,094752.000,0730.690328,N,08022.007361,E,2,16,0.65,152.706+,M,-95.954,M,,*5F
$GPGSA,A,3,01,11,30,09,07,03,28,23,18,17,,,1.37,0.65,1.21*0D
$GLGSA,A,3,88,67,81,82,68,69,,,,,,,1.37,0.65,1.21*19
$GPGSV,4,1,14,41,80,160,37,09,73,213,37,11,52,094,45,23,45,163,39*7B
+$GPGSV,4,2,14,07,43,011,32,17,34,215,35,01,33,121,38,28,31,298,33*79
$GPGSV,4,3,14,18,27,091,24,08,25,033,,30,25,337,20,19,09,213,22*76
$GPGSV,4,4,14,03,07,158,33,193,,,*7F
$GLGSV,3,1,09,81,63,127,39,88,38,048,16,68,37,254,36,82,26,186,38*6A
$GLGSV,3,2,09,67,23,192,31,78,21,020,,69,15,304,24,77,10,069,*6F
$GLGSV,3,3,09,79,10,330,*53
$GNRMC,094752.000,A,0730.690328,N,08022.007361,E,0.00,191.54,280219,,,D*79
$GNVTG,191.54,T,,M,0.00,N,0.00,K,D*2E
$GNGGA,094753.000,0730.690328,N,08022.007361,E,2,16,0.65,152.706,M,-95.954,M,,*5E
$GPGSA,A,3,01,11,30,09,07,03,28,23,18,17,,,1.37,0.65,1.21*0D
$GLGSA,A,3,88,67,81,82,68,69,,,,,,,1.37,0.65,1.21*19
$GPGSV,4,1,14,41,80,160,37,09,73,213,37,11,52,094,45,23,45,163,39*7B
$GPGSV,4,2,14,07,43,011,32,17,34,215,35,01,33,121,36,28,31,298,33*77
$GPGSV,4,3,14,18,27,091,23,08,25,033,,30,25,337,19,19,09,213,22*7B
$GPGSV,4,4,14,03,07,158,33,193,,,*7F
$GLGSV,3,1,09,81,63,127,39,88,38,048,15,68,37,254,36,82,26,186,38*69
$GLGSV,3,2,09,67,23,192,31,78,21,020,,69,15,304,24,77,10,069,*6F
$GLGSV,3,3,09,79,10,330,*53
$GNRMC,094753.000,A,0730.690328,N,08022.007361,E,0.00,191.54,280219,,,D*78
$GNVTG,191.54,T,,M,0.00,N,0.00,K,D*2E
CC$GNGGA,094754.000,0730.690328,N,08022.007361,E,2,16,0.65,152.706,M,-95.954,M,,*59
$GPGSA,A,3,01,11,30,09,07,03,28,23,18,17,,,1.37,0.65,1.21*0D
$GLGSA,A,3,88,67,81,82,68,69,,,,,,,1.37,0.65,1.21*19
$GPGSV,4,1,14,41,80,160,37,09,73,213,37,11,52,094,45,23,45,163,39*7B
$GPGSV,4,2,14,07,43,011,32,17,34,215,35,01,33,121,36,28,31,298,33*77
$GPGSV,4,3,14,18,27,091,22,08,25,033,,30,25,337,19,19,09,213,22*7A
$GPGSV,4,4,14,03,07,157,33,193,,,*70
$GLGSV,3,1,09,81,63,127,40,88,38,048,17,68,37,254,36,82,26,186,38*65
$GLGSV,3,2,09,67,23,192,31,78,21,020,,69,15,304,22,77,10,069,*69
$GLGSV,3,3,09,79,10,330,*53
$GNRMC,094754.000,A,0730.690328,N,08022.007361,E,0.00,191.54,280219,,,D*7F
$GNVTG,191.54,T,,M,0.00,N,0.00,K,D*2E
$GNGGA,094755.000,0730.690328,N,08022.007361,E,2,16,0.65,152.706,M,-95.954,M,,*58
$GPGSA,A,3,01,11,30,09,07,03,28,23,18,17,,,1.37,0.65,1.21*0D
$GLGSA,A,3,88,67,81,82,68,69,,,,,,,1.37,0.65,1.21*19
$GPGSV,4,1,14,41,80,160,37,09,73,213,36,11,52,094,45,23,45,163,39*7A
$GPGSV,4,2,14,07,43,011,32,17,34,215,35,01,33,121,36,28,31,298,32*76
$GPGSV,4,3,14,18,27,091,22,08,25,033,,30,25,337,20,19,09,213,22*70
$GPGSV,4,4,14,03,07,157,33,193,,,*70
$GLGSV,3,1,09,81,63,127,40,88,38,048,18,68,37,254,35,82,26,186,38*69
$GLGSV,3,2,09,67,23,192,31,78,21,020,,69,15,304,20,77,10,069,*6B
$GLGSV,3,3,09,79,10,330,*53
$GNRMC,094755.000,A,0730.690328,N,08022.007361,E,0.00,191.54,280219,,,D*7E
$GNVTG,191.54,T,,M,0.00,N,0.00,K,D*2E
GGNN$GNGGA,094756.000,0730.690328,N,08022.007361,E,2,16,0.65,152.706,M,-95.954,M,,*5B
$GPGSA,A,3,01,11,30,09,07,03,28,23,18,17,,,1.37,0.65,1.21*0D
$GLGSA,A,3,88,67,81,82,68,69,,,,,,,1.37,0.65,1.21*19
$GPGSV,4,1,14,41,80,160,37,09,73,213,36,11,52,094,45,23,45,163,39*7A
$GPGSV,4,2,14,07,43,011,32,17,34,215,35,01,33,121,36,28,31,298,32*76
$GPGSV,4,3,14,18,27,091,22,08,25,033,,30,25,337,21,19,09,213,21*72
$GPGSV,4,4,14,03,07,157,33,193,,,*70
$GLGSV,3,1,09,81,63,127,40,88,38,048,17,68,37,254,35,82,26,186,38*66
$GLGSV,3,2,09,67,23,192,31,78,21,020,,69,15,304,19,77,10,069,*61
$GLGSV,3,3,09,79,10,330,*53
$GNRMC,094756.000,A,0730.690328,N,08022.007361,E,0.00,191.54,280219,,,D*7D
$GNVTG,191.54,T,,M,0.00,N,0.00,K,D*2E
$GNGGA,094757.000,0730.690328,N,08022.007361,E,2,16,0.65,152.706,M,-95.954,M,,*5A
$GPGSA,A,3,01,11,30,09,07,03,28,23,18,17,,,1.37,0.65,1.21*0D
$GLGSA,A,3,88,67,81,82,68,69,,,,,,,1.37,0.65,1.21*19
$GPGSV,4,1,14,41,80,160,37,09,73,213,36,11,52,094,45,23,45,163,39*7A
$GPGSV,4,2,14,07,43,011,32,17,34,215,35,01,33,121,36,28,31,298,32*76
$GPGSV,4,3,14,18,27,091,22,08,25,033,,30,25,337,22,19,09,213,21*71
$GPGSV,4,4,14,03,07,157,32,193,,,*71
$GLGSV,3,1,09,81,63,127,40,88,38,048,20,68,37,254,35,82,26,186,38*62
$GLGSV,3,2,09,67,23,192,31,78,21,020,,69,15,304,18,77,10,069,*60
$GLGSV,3,3,09,79,10,330,*53
$GNRMC,094757.000,A,0730.690328,N,08022.007361,E,0.00,191.54,280219,,,D*7C
$GNVTG,191.54,T,,M,0.00,N,0.00,K,D*2E
SSTT$GNGGA,094758.000,0730.690328,N,08022.007361,E,2,16,0.65,152.706,M,-95.954,M,,*55
$GPGSA,A,3,01,11,30,09,07,03,28,23,18,17,,,1.37,0.65,1.21*0D
$GLGSA,A,3,88,67,81,82,68,69,,,,,,,1.37,0.65,1.21*19
$GPGSV,4,1,14,41,80,160,37,09,73,213,36,11,52,094,45,23,45,163,39*7A
$GPGSV,4,2,14,07,43,012,32,17,34,215,34,01,33,121,36,28,31,298,32*74
$GPGSV,4,3,14,18,27,091,22,08,25,033,,30,25,337,23,19,09,213,21*70
$GPGSV,4,4,14,03,07,157,31,193,,,*72
$GLGSV,3,1,09,81,63,127,40,88,38,048,20,68,37,254,35,82,26,186,38*62
$GLGSV,3,2,09,67,23,192,31,78,21,020,,69,15,304,17,77,10,069,*6F
$GLGSV,3,3,09,79,10,330,*53
$GNRMC,094758.000,A,0730.690328,N,08022.007361,E,0.00,191.54,280219,,,D*73
$GNVTG,191.54,T,,M,0.00,N,0.00,K,D*2E
SSTT$GNGGA,094759.000,0730.690328,N,08022.007361,E,2,16,0.65,152.706,M,-95.954,M,,*54
$GPGSA,A,3,01,11,30,09,07,03,28,23,18,17,,,1.37,0.65,1.21*0D
$GLGSA,A,3,88,67,81,82,68,69,,,,,,,1.37,0.65,1.21*19
$GPGSV,4,1,14,41,80,160,37,09,73,213,35,11,52,094,45,23,45,163,39*79
$GPGSV,4,2,14,07,43,012,32,17,34,215,34,01,33,121,36,28,31,298,32*74
$GPGSV,4,3,14,18,27,091,22,30,25,337,23,08,24,032,,19,09,213,21*70
$GPGSV,4,4,14,03,07,157,31,193,,,*72
$GLGSV,3,1,09,81,63,127,40,88,38,048,21,68,37,254,35,82,26,186,38*63
$GLGSV,3,2,09,67,23,192,31,78,21,020,,69,15,304,17,77,10,069,*6F
$GLGSV,3,3,09,79,10,330,*53
$GNRMC,094759.000,A,0730.690328,N,08022.007361,E,0.00,191.54,280219,,,D*72
$GNVTG,191.54,T,,M,0.00,N,0.00,K,D*2E
