============ RESTART: /home/pi/Desktop/Project/Python/GPS/gps3.py ============
AT+CGNSINF
+CGNSINF: 0,,,,,,,,,,,,,,,,,,,,

OK
$GNGGA,045553.000,0715.287075,N,08035.472466,E,1,9,1.24,489.235,M,-95.958,M,,*6D
$GPGSA,A,3,07,09,08,11,17,23,,,,,,,1.54,1.24,0.90*0D
$GLGSA,A,3,74,85,84,,,,,,,,,,1.54,1.24,0.90*12
$GPGSV,3,1,10,09,77,241,31,11,53,104,27,23,50,162,25,07,40,008,25*7A
$GPGSV,3,2,10,08,31,034,30,01,30,128,20,17,27,212,16,22,02,142,*7C
$GPGSV,3,3,10,193,,,,46,,,*41
$GLGSV,2,1,06,85,55,144,30,72,40,262,,84,38,055,20,71,30,198,*68
$GLGSV,2,2,06,74,19,012,22,86,12,191,*6F
$GNRMC,045553.000,A,0715.287075,N,08035.472466,E,0.00,123.19,070519,,,A*77
$GNVTG,123.19,T,,M,0.00,N,0.00,K,A*2B
 



['$GNGGA,045554.000,0715.287075,N,08035.472466,E,1,9,1.25,489.235,M,-95.958,M,,*6B\r', '$GPGSA,A,3,07,09,08,11,17,23,,,,,,,1.54,1.25,0.90*0C\r', '$GLGSA,A,3,74,85,84,,,,,,,,,,1.54,1.25,0.90*13\r', '$GPGSV,3,1,10,09,77,241,31,11,53,104,27,23,50,162,25,07,40,008,25*7A\r', '$GPGSV,3,2,10,08,31,034,30,01,30,128,20,17,27,212,13,22,02,142,*79\r', '$GPGSV,3,3,10,193,,,,46,,,*41\r', '$GLGSV,2,1,06,85,55,144,31,72,40,262,23,84,38,055,21,71,30,198,*69\r', '$GLGSV,2,2,06,74,19,012,22,86,12,191,*6F\r', '$GNRMC,045554.000,A,0715.287075,N,08035.472466,E,0.00,123.19,070519,,,A*70\r', '$GNVTG,123.19,T,,M,0.00,N,0.00,K,A*2B\r', '']
['$GNRMC', '045554.000', 'A', '0715.287075', 'N', '08035.472466', 'E', '0.00', '123.19', '070519', '', '', 'A*70\r']
lat_row =  715.287075 
lon_row =  8035.472466

lat1  15.287075
lat11  7
Latitude =  7.254784583333333333333333333

lon1  35.47246
lon11  80
Longitude =  80.59120766666666666666666667

Latitude/Longitude - PUBLISHED


['$GNGGA,045555.000,0715.287075,N,08035.472466,E,1,9,1.24,489.235,M,-95.958,M,,*6B\r', '$GPGSA,A,3,07,09,08,11,17,23,,,,,,,1.54,1.24,0.90*0D\r', '$GLGSA,A,3,74,85,84,,,,,,,,,,1.54,1.24,0.90*12\r', '$GPGSV,3,1,10,09,77,241,31,11,53,104,27,23,50,162,25,07,40,008,25*7A\r', '$GPGSV,3,2,10,08,31,034,30,01,30,128,20,17,27,212,13,22,02,142,*79\r', '$GPGSV,3,3,10,193,,,,46,,,*41\r', '$GLGSV,2,1,06,85,55,144,31,72,40,262,22,84,38,055,21,71,30,198,*68\r', '$GLGSV,2,2,06,74,19,012,22,86,12,191,*6F\r', '$GNRMC,045555.000,A,0715.287075,N,08035.472466,E,0.00,123.19,070519,,,A*71\r', '$GNVTG,123.19,T,,M,0.00,N,0.00,K,A*2B\r', '$GNGGA,045556.000,0715.287075,N,08035.472466,E,1,9,1.24,489.235,M,-95.958,M,,*68\r', '$GPGSA,A,3,07,09,08,11,17,23,,,,,,,1.54,1.24,0.90*0D\r', '$GLGSA,A,3,74,85,84,,,,,,,,,,1.54,1.24,0.90*12\r', '$GPGSV,3,1,10,09,77,241,30,11,53,104,27,23,50,162,25,07,40,008,25*7B\r', '$GPGSV,3,2,10,08,31,034,31,01,30,128,20,17,27,212,12,22,02,142,*79\r', '$GPGSV,3,3,10,193,,,,46,,,*41\r', '$GLGSV,2,1,07,85,55,144,31,72,40,262,24,84,38,055,21,71,30,198,*6F\r', '$']
['$GNRMC', '045555.000', 'A', '0715.287075', 'N', '08035.472466', 'E', '0.00', '123.19', '070519', '', '', 'A*71\r']
lat_row =  715.287075 
lon_row =  8035.472466

lat1  15.287075
lat11  7
Latitude =  7.254784583333333333333333333

lon1  35.47246
lon11  80
Longitude =  80.59120766666666666666666667

Latitude/Longitude - PUBLISHED


['GLGSV,2,2,07,74,19,012,22,73,12,057,,86,12,191,*5B\r', '$GNRMC,045556.000,A,0715.287075,N,08035.472466,E,0.00,123.19,070519,,,A*72\r', '$GNVTG,123.19,T,,M,0.00,N,0.00,K,A*2B\r', '$GNGGA,045557.000,0715.287075,N,08035.472466,E,1,9,1.25,489.235,M,-95.958,M,,*68\r', '$GPGSA,A,3,07,09,08,11,17,23,,,,,,,1.54,1.25,0.90*0C\r', '$GLGSA,A,3,74,85,84,,,,,,,,,,1.54,1.25,0.90*13\r', '$GPGSV,3,1,10,09,77,241,29,11,53,104,27,23,50,162,25,07,40,008,25*73\r', '$GPGSV,3,2,10,08,31,034,31,01,30,128,20,17,27,212,13,22,02,142,*78\r', '$GPGSV,3,3,10,193,,,,46,,,*41\r', '$GLGSV,2,1,07,85,55,144,31,72,40,262,25,84,38,055,21,71,30,198,*6E\r', '$GLGSV,2,2,07,74,19,012,22,73,12,057,,86,12,191,*5B\r', '$GNRMC,045557.000,A,0715.287075,N,08035.472466,E,0.00,123.19,070519,,,A*73\r', '$GNVTG,123.19,T,,M,0.00,N,0.00,K,A*2B\r', '$GNGGA,045558.000,0715.287075,N,08035.472466,E,1,9,1.25,489.235,M,-95.958,M,,*67\r', '$GPGSA,A,3,07,09,08,11,17,23,,,,,,,1.54,1.25,0.90*0C\r', '$GLGSA,A,3,74,85,84,,,,,,,,,,1.54,1.25,0.90*13\r', '$GPGSV,3,1,10,09,77,241,29,11,53,104,27,23,50,162,25,07,40,0']
['$GNRMC', '045556.000', 'A', '0715.287075', 'N', '08035.472466', 'E', '0.00', '123.19', '070519', '', '', 'A*72\r']
lat_row =  715.287075 
lon_row =  8035.472466

lat1  15.287075
lat11  7
Latitude =  7.254784583333333333333333333

lon1  35.47246
lon11  80
Longitude =  80.59120766666666666666666667

Latitude/Longitude - PUBLISHED
['$GNRMC', '045557.000', 'A', '0715.287075', 'N', '08035.472466', 'E', '0.00', '123.19', '070519', '', '', 'A*73\r']
lat_row =  715.287075 
lon_row =  8035.472466

lat1  15.287075
lat11  7
Latitude =  7.254784583333333333333333333

lon1  35.47246
lon11  80
Longitude =  80.59120766666666666666666667

Latitude/Longitude - PUBLISHED


['08,26*70\r', '$GPGSV,3,2,10,08,31,034,31,01,30,128,20,17,27,212,13,22,02,142,*78\r', '$GPGSV,3,3,10,193,,,,47,,,*40\r', '$GLGSV,2,1,07,85,55,144,31,72,40,262,24,84,38,055,21,71,30,198,*6F\r', '$GLGSV,2,2,07,74,19,012,22,73,12,057,,86,12,191,*5B\r', '$GNRMC,045558.000,A,0715.287075,N,08035.472466,E,0.00,123.19,070519,,,A*7C\r', '$GNVTG,123.19,T,,M,0.00,N,0.00,K,A*2B\r', '$GNGGA,045559.000,0715.287075,N,08035.472466,E,1,9,1.25,489.235,M,-95.958,M,,*66\r', '$GPGSA,A,3,07,09,08,11,17,23,,,,,,,1.54,1.25,0.90*0C\r', '$GLGSA,A,3,74,85,84,,,,,,,,,,1.54,1.25,0.90*13\r', '$GPGSV,3,1,10,09,77,241,28,11,53,104,27,23,50,162,25,07,40,008,26*71\r', '$GPGSV,3,2,10,08,31,034,31,01,30,128,20,17,27,212,13,22,02,142,*78\r', '$GPGSV,3,3,10,193,,,,47,,,*40\r', '$GLGSV,2,1,07,85,55,144,31,72,40,262,24,84,38,055,21,71,30,198,*6F\r', '$GLGSV,2,2,07,74,19,012,22,73,12,057,,86,12,191,*5B\r', '$GNRMC,045559.000,A,0715.287075,N,08035.472466,E,0.00,123.19,070519,,,A*7D\r', '$GNVTG,123.19,T,,M,0.00,N,0.00,K,A*2B\r', '$GNGGA,045600.000,0715.287075,N,08035.472466,E,1,8,1.55,489.235,M,']
['$GNRMC', '045558.000', 'A', '0715.287075', 'N', '08035.472466', 'E', '0.00', '123.19', '070519', '', '', 'A*7C\r']
lat_row =  715.287075 
lon_row =  8035.472466

lat1  15.287075
lat11  7
Latitude =  7.254784583333333333333333333

lon1  35.47246
lon11  80
Longitude =  80.59120766666666666666666667

Latitude/Longitude - PUBLISHED
['$GNRMC', '045559.000', 'A', '0715.287075', 'N', '08035.472466', 'E', '0.00', '123.19', '070519', '', '', 'A*7D\r']
lat_row =  715.287075 
lon_row =  8035.472466

lat1  15.287075
lat11  7
Latitude =  7.254784583333333333333333333

lon1  35.47246
lon11  80
Longitude =  80.59120766666666666666666667

Latitude/Longitude - PUBLISHED


['-95.958,M,,*6F\r', '$GPGSA,A,3,07,09,08,11,23,,,,,,,,1.83,1.55,0.96*01\r', '$GLGSA,A,3,74,85,84,,,,,,,,,,1.83,1.55,0.96*18\r', '$GPGSV,3,1,10,09,77,241,27,11,53,104,27,23,50,162,25,07,40,008,27*7F\r', '$GPGSV,3,2,10,08,31,034,31,01,30,128,21,17,27,212,,22,02,142,*7B\r', '$GPGSV,3,3,10,193,,,,47,,,*40\r', '$GLGSV,2,1,07,85,55,144,32,72,40,262,24,84,38,055,21,71,30,198,*6C\r', '$GLGSV,2,2,07,74,19,012,22,73,12,057,,86,12,191,*5B\r', '$GNRMC,045600.000,A,0715.287075,N,08035.472466,E,0.00,123.19,070519,,,A*72\r', '$GNVTG,123.19,T,,M,0.00,N,0.00,K,A*2B\r', '$GNGGA,045601.000,0715.287075,N,08035.472466,E,1,8,1.55,489.235,M,-95.958,M,,*6E\r', '$GPGSA,A,3,07,09,08,11,23,,,,,,,,1.83,1.55,0.96*01\r', '$GLGSA,A,3,74,85,84,,,,,,,,,,1.83,1.55,0.96*18\r', '$GPGSV,3,1,10,09,77,241,26,11,53,104,27,23,50,162,25,07,40,008,27*7E\r', '$GPGSV,3,2,10,08,31,034,31,01,30,128,21,17,27,212,,22,02,142,*7B\r', '$GPGSV,3,3,10,193,,,,47,,,*40\r', '$GLGSV,2,1,07,85,55,144,32,72,40,262,24,84,38,055,21,71,30,198,*6C\r', '$GLGSV,2,2,07,74,19,012,21,73,12,057,,86,12,191,*58\r', '$GNRMC,0456']
['$GNRMC', '045600.000', 'A', '0715.287075', 'N', '08035.472466', 'E', '0.00', '123.19', '070519', '', '', 'A*72\r']
lat_row =  715.287075 
lon_row =  8035.472466

lat1  15.287075
lat11  7
Latitude =  7.254784583333333333333333333

lon1  35.47246
lon11  80
Longitude =  80.59120766666666666666666667

Latitude/Longitude - PUBLISHED
['$GNRMC', '0456']
Traceback (most recent call last):
  File "/home/pi/Desktop/Project/Python/GPS/gps3.py", line 53, in <module>
    if rmc[2] == 'A': #check validity
IndexError: list index out of range
>>> 